$GPGGA,000918.000,4011.5638,N,10505.3954,W,1,08,1.01,1541.4,M,-20.9,M,,*63
$GPGSA,A,3,28,12,06,19,02,24,17,03,,,,,1.32,1.01,0.84*08
$GPGSV,3,1,09,06,79,104,28,19,57,045,23,02,47,212,29,12,41,314,16*73
$GPGSV,3,2,09,24,40,266,19,17,39,062,21,28,14,126,22,03,11,042,19*75
$GPGSV,3,3,09,34,,,*77
$GPRMC,000918.000,A,4011.5638,N,10505.3954,W,0.66,320.62,090517,,,A*75
$GPVTG,320.62,T,,M,0.66,N,1.23,K,A*38
$GPGGA,000919.000,4011.5642,N,10505.3955,W,1,08,1.01,1541.4,M,-20.9,M,,*6E
$GPGSA,A,3,28,12,06,19,02,24,17,03,,,,,1.32,1.01,0.84*08
$GPRMC,000919.000,A,4011.5642,N,10505.3955,W,0.47,324.23,090517,,,A*7A
$GPVTG,324.23,T,,M,0.47,N,0.88,K,A*3A
$GPGGA,000920.000,4011.5647,N,10505.3959,W,1,08,1.01,1541.3,M,-20.9,M,,*6A
$GPGSA,A,3,28,12,06,19,02,24,17,03,,,,,1.32,1.01,0.84*08
$GPRMC,000920.000,A,4011.5647,N,10505.3959,W,0.80,310.75,090517,,,A*76
$GPVTG,310.75,T,,M,0.80,N,1.48,K,A*38
$GPGGA,000921.000,4011.5649,N,10505.3959,W,1,08,1.02,1541.2,M,-20.9,M,,*67
$GPGSA,A,3,28,12,06,19,02,24,17,03,,,,,1.32,1.02,0.84*0B
$GPRMC,000921.000,A,4011.5649,N,10505.3959,W,0.57,326.87,090517,,,A*7B
$GPVTG,326.87,T,,M,0.57,N,1.06,K,A*30
$GPGGA,000922.000,4011.5651,N,10505.3960,W,1,08,1.01,1541.1,M,-20.9,M,,*67
$GPGSA,A,3,28,12,06,19,02,24,17,03,,,,,1.32,1.01,0.84*08
$GPRMC,000922.000,A,4011.5651,N,10505.3960,W,0.54,334.32,090517,,,A*75
$GPVTG,334.32,T,,M,0.54,N,1.00,K,A*38
$GPGGA,000923.000,4011.5651,N,10505.3958,W,1,08,1.01,1541.1,M,-20.9,M,,*6D
$GPGSA,A,3,28,12,06,19,02,24,17,03,,,,,1.32,1.01,0.84*08
$GPGSV,3,1,09,06,79,104,28,19,57,045,24,02,47,212,30,12,41,314,16*7C
$GPGSV,3,2,09,24,40,266,18,17,39,062,22,28,14,126,23,03,11,042,20*7C
$GPGSV,3,3,09,35,,,*76
$GPRMC,000923.000,A,4011.5651,N,10505.3958,W,0.41,331.14,090517,,,A*7A
$GPVTG,331.14,T,,M,0.41,N,0.75,K,A*3E
$GPGGA,000924.000,4011.5651,N,10505.3958,W,1,08,1.01,1541.1,M,-20.9,M,,*6A
$GPGSA,A,3,28,12,06,19,02,24,17,03,,,,,1.32,1.01,0.84*08
$GPRMC,000924.000,A,4011.5651,N,10505.3958,W,0.36,351.97,090517,,,A*70
$GPVTG,351.97,T,,M,0.36,N,0.67,K,A*30
$GPGGA,000925.000,4011.5652,N,10505.3958,W,1,08,1.04,1541.1,M,-20.9,M,,*6D
$GPGSA,A,3,28,12,06,19,02,24,17,03,,,,,1.86,1.04,1.54*0E
$GPRMC,000925.000,A,4011.5652,N,10505.3958,W,0.33,5.44,090517,,,A*7B
$GPVTG,5.44,T,,M,0.33,N,0.62,K,A*3C
$GPGGA,000926.000,4011.5653,N,10505.3958,W,1,08,1.04,1541.1,M,-20.9,M,,*6F
$GPGSA,A,3,28,12,06,19,02,24,17,03,,,,,1.86,1.04,1.54*0E
$GPRMC,000926.000,A,4011.5653,N,10505.3958,W,0.27,302.84,090517,,,A*74
$GPVTG,302.84,T,,M,0.27,N,0.50,K,A*30
$GPGGA,000927.000,4011.5653,N,10505.3959,W,1,08,1.02,1541.1,M,-20.9,M,,*69
$GPGSA,A,3,28,12,06,19,02,24,17,03,,,,,1.32,1.02,0.84*0B
$GPRMC,000927.000,A,4011.5653,N,10505.3959,W,0.37,327.31,090517,,,A*7C
$GPVTG,327.31,T,,M,0.37,N,0.68,K,A*33
$GPGGA,000928.000,4011.5654,N,10505.3959,W,1,08,1.02,1541.1,M,-20.9,M,,*61
$GPGSA,A,3,28,12,06,19,02,24,17,03,,,,,1.32,1.02,0.84*0B
$GPGSV,3,1,09,06,79,104,28,19,57,045,24,02,47,212,30,12,41,314,16*7C
$GPGSV,3,2,09,24,40,266,17,17,39,062,22,28,14,126,24,03,11,042,23*77
$GPGSV,3,3,09,36,,,*75
$GPRMC,000928.000,A,4011.5654,N,10505.3959,W,0.31,11.94,090517,,,A*4B
$GPVTG,11.94,T,,M,0.31,N,0.57,K,A*00
$GPGGA,000929.000,4011.5655,N,10505.3959,W,1,08,1.04,1541.1,M,-20.9,M,,*67
$GPGSA,A,3,28,12,06,19,02,24,17,03,,,,,1.86,1.04,1.54*0E
$GPRMC,000929.000,A,4011.5655,N,10505.3959,W,0.35,344.80,090517,,,A*79
$GPVTG,344.80,T,,M,0.35,N,0.65,K,A*33
$GPGGA,000930.000,4011.5656,N,10505.3960,W,1,08,1.01,1541.1,M,-20.9,M,,*63
$GPGSA,A,3,28,12,06,19,02,24,17,03,,,,,1.32,1.01,0.84*08
$GPRMC,000930.000,A,4011.5656,N,10505.3960,W,0.33,340.77,090517,,,A*72
$GPVTG,340.77,T,,M,0.33,N,0.61,K,A*3D
$GPGGA,000931.000,4011.5657,N,10505.3960,W,1,08,1.01,1541.1,M,-20.9,M,,*63
$GPGSA,A,3,28,12,06,19,02,24,17,03,,,,,1.32,1.01,0.84*08
$GPRMC,000931.000,A,4011.5657,N,10505.3960,W,0.15,54.71,090517,,,A*46
$GPVTG,54.71,T,,M,0.15,N,0.28,K,A*04
$GPGGA,000932.000,4011.5657,N,10505.3960,W,1,08,1.01,1541.0,M,-20.9,M,,*61
$GPGSA,A,3,28,12,06,19,02,24,17,03,,,,,1.32,1.01,0.84*08
$GPRMC,000932.000,A,4011.5657,N,10505.3960,W,0.33,25.89,090517,,,A*40
$GPVTG,25.89,T,,M,0.33,N,0.61,K,A*0C
$GPGGA,000933.000,4011.5658,N,10505.3959,W,1,08,1.01,1541.0,M,-20.9,M,,*65
$GPGSA,A,3,28,12,06,19,02,24,17,03,,,,,1.32,1.01,0.84*08
$GPGSV,3,1,09,06,79,102,28,19,57,045,23,02,47,212,30,12,41,314,17*7C
$GPGSV,3,2,09,24,40,266,17,17,39,062,22,28,14,126,25,03,11,042,24*71
$GPGSV,3,3,09,38,,,*7B
$GPRMC,000933.000,A,4011.5658,N,10505.3959,W,0.70,21.21,090517,,,A*45
$GPVTG,21.21,T,,M,0.70,N,1.29,K,A*00
$GPGGA,000934.000,4011.5657,N,10505.3960,W,1,08,1.01,1541.1,M,-20.9,M,,*66
$GPGSA,A,3,28,12,06,19,02,24,17,03,,,,,1.32,1.01,0.84*08
$GPRMC,000934.000,A,4011.5657,N,10505.3960,W,0.52,3.81,090517,,,A*7D
$GPVTG,3.81,T,,M,0.52,N,0.96,K,A*3F
$GPGGA,000935.000,4011.5655,N,10505.3962,W,1,08,1.04,1541.4,M,-20.9,M,,*67
$GPGSA,A,3,28,12,06,19,02,24,17,03,,,,,1.86,1.04,1.54*0E
$GPRMC,000935.000,A,4011.5655,N,10505.3962,W,0.37,313.47,090517,,,A*77
$GPVTG,313.47,T,,M,0.37,N,0.68,K,A*35
$GPGGA,000936.000,4011.5654,N,10505.3965,W,1,08,1.01,1541.6,M,-20.9,M,,*65
$GPGSA,A,3,28,12,06,19,02,24,17,03,,,,,1.32,1.01,0.84*08
$GPRMC,000936.000,A,4011.5654,N,10505.3965,W,0.37,299.39,090517,,,A*78
$GPVTG,299.39,T,,M,0.37,N,0.69,K,A*3E
$GPGGA,000937.000,4011.5652,N,10505.3964,W,1,08,1.01,1541.8,M,-20.9,M,,*6D
$GPGSA,A,3,28,12,06,19,02,24,17,03,,,,,1.32,1.01,0.84*08
$GPRMC,000937.000,A,4011.5652,N,10505.3964,W,0.38,54.73,090517,,,A*4C
$GPVTG,54.73,T,,M,0.38,N,0.69,K,A*0C
$GPGGA,000938.000,4011.5652,N,10505.3962,W,1,08,1.01,1541.8,M,-20.9,M,,*64
$GPGSA,A,3,28,12,06,19,02,24,17,03,,,,,1.32,1.01,0.84*08
$GPGSV,3,1,09,06,79,102,27,19,57,045,25,02,47,212,30,12,41,314,18*7A
$GPGSV,3,2,09,24,40,266,17,17,39,062,21,28,14,126,25,03,11,042,24*72
$GPGSV,3,3,09,38,,,*7B
$GPRMC,000938.000,A,4011.5652,N,10505.3962,W,0.39,98.85,090517,,,A*4D
$GPVTG,98.85,T,,M,0.39,N,0.72,K,A*0E
$GPGGA,000939.000,4011.5652,N,10505.3961,W,1,08,1.01,1541.8,M,-20.9,M,,*66
$GPGSA,A,3,28,12,06,19,02,24,17,03,,,,,1.32,1.01,0.84*08
$GPRMC,000939.000,A,4011.5652,N,10505.3961,W,0.38,118.95,090517,,,A*76
$GPVTG,118.95,T,,M,0.38,N,0.70,K,A*35
$GPGGA,000940.000,4011.5652,N,10505.3960,W,1,08,1.01,1541.8,M,-20.9,M,,*69
$GPGSA,A,3,28,12,06,19,02,24,17,03,,,,,1.32,1.01,0.84*08
$GPRMC,000940.000,A,4011.5652,N,10505.3960,W,0.13,78.92,090517,,,A*40
$GPVTG,78.92,T,,M,0.13,N,0.24,K,A*0D
$GPGGA,000941.000,4011.5652,N,10505.3959,W,1,08,1.02,1541.8,M,-20.9,M,,*61
$GPGSA,A,3,28,12,06,19,02,24,17,03,,,,,1.32,1.02,0.84*0B
$GPRMC,000941.000,A,4011.5652,N,10505.3959,W,0.32,297.10,090517,,,A*71
$GPVTG,297.10,T,,M,0.32,N,0.58,K,A*3C
$GPGGA,000942.000,4011.5652,N,10505.3960,W,1,08,1.01,1541.8,M,-20.9,M,,*6B
$GPGSA,A,3,28,12,06,19,02,24,17,03,,,,,1.32,1.01,0.84*08
$GPRMC,000942.000,A,4011.5652,N,10505.3960,W,0.23,302.67,090517,,,A*75
$GPVTG,302.67,T,,M,0.23,N,0.43,K,A*3B
$GPGGA,000943.000,4011.5652,N,10505.3961,W,1,08,1.01,1541.8,M,-20.9,M,,*6B
$GPGSA,A,3,28,12,06,19,02,24,17,03,,,,,1.32,1.01,0.84*08
$GPGSV,3,1,09,06,79,102,27,19,57,045,23,02,47,212,30,12,41,314,18*7C
$GPGSV,3,2,09,24,40,266,18,17,38,063,21,28,14,126,25,03,11,042,23*7A
$GPGSV,3,3,09,41,,,*75
$GPRMC,000943.000,A,4011.5652,N,10505.3961,W,0.05,168.54,090517,,,A*7F
$GPVTG,168.54,T,,M,0.05,N,0.10,K,A*37
$GPGGA,000944.000,4011.5652,N,10505.3961,W,1,08,1.01,1541.8,M,-20.9,M,,*6C
$GPGSA,A,3,28,12,06,19,02,24,17,03,,,,,1.32,1.01,0.84*08
$GPRMC,000944.000,A,4011.5652,N,10505.3961,W,0.27,122.25,090517,,,A*70
$GPVTG,122.25,T,,M,0.27,N,0.51,K,A*3A
$GPGGA,000945.000,4011.5652,N,10505.3960,W,1,08,1.01,1541.8,M,-20.9,M,,*6C
$GPGSA,A,3,28,12,06,19,02,24,17,03,,,,,1.32,1.01,0.84*08
$GPRMC,000945.000,A,4011.5652,N,10505.3960,W,0.26,189.18,090517,,,A*7E
$GPVTG,189.18,T,,M,0.26,N,0.47,K,A*33
$GPGGA,000946.000,4011.5651,N,10505.3960,W,1,08,1.02,1541.8,M,-20.9,M,,*6F
$GPGSA,A,3,28,12,06,19,02,24,17,03,,,,,1.32,1.02,0.84*0B
$GPRMC,000946.000,A,4011.5651,N,10505.3960,W,0.15,189.79,090517,,,A*79
$GPVTG,189.79,T,,M,0.15,N,0.29,K,A*3C
$GPGGA,000947.000,4011.5651,N,10505.3961,W,1,08,1.01,1541.8,M,-20.9,M,,*6C
$GPGSA,A,3,28,12,06,19,02,24,17,03,,,,,1.32,1.01,0.84*08
$GPRMC,000947.000,A,4011.5651,N,10505.3961,W,0.36,94.34,090517,,,A*4C
$GPVTG,94.34,T,,M,0.36,N,0.67,K,A*03
$GPGGA,000948.000,4011.5651,N,10505.3959,W,1,08,1.01,1541.8,M,-20.9,M,,*68
$GPGSA,A,3,28,12,06,19,02,24,17,03,,,,,1.32,1.01,0.84*08
$GPGSV,3,1,09,06,79,102,27,19,57,045,24,02,47,212,29,12,41,314,19*72
$GPGSV,3,2,09,24,40,265,18,17,38,063,19,28,14,126,25,03,11,042,22*73
$GPGSV,3,3,09,43,,,*77
$GPRMC,000948.000,A,4011.5651,N,10505.3959,W,0.11,60.51,090517,,,A*45
$GPVTG,60.51,T,,M,0.11,N,0.21,K,A*0C
$GPGGA,000949.000,4011.5651,N,10505.3959,W,1,08,1.01,1541.8,M,-20.9,M,,*69
$GPGSA,A,3,28,12,06,19,02,24,17,03,,,,,1.32,1.01,0.84*08
$GPRMC,000949.000,A,4011.5651,N,10505.3959,W,0.09,126.79,090517,,,A*74
$GPVTG,126.79,T,,M,0.09,N,0.17,K,A*39
$GPGGA,000950.000,4011.5651,N,10505.3959,W,1,08,1.01,1541.8,M,-20.9,M,,*61
$GPGSA,A,3,28,12,06,19,02,24,17,03,,,,,1.32,1.01,0.84*08
$GPRMC,000950.000,A,4011.5651,N,10505.3959,W,0.31,68.48,090517,,,A*4E
$GPVTG,68.48,T,,M,0.31,N,0.57,K,A*0F
$GPGGA,000951.000,4011.5651,N,10505.3958,W,1,08,1.01,1541.8,M,-20.9,M,,*61
$GPGSA,A,3,28,12,06,19,02,24,17,03,,,,,1.32,1.01,0.84*08
$GPRMC,000951.000,A,4011.5651,N,10505.3958,W,0.42,65.91,090517,,,A*43
$GPVTG,65.91,T,,M,0.42,N,0.78,K,A*0F
$GPGGA,000952.000,4011.5651,N,10505.3956,W,1,08,1.01,1541.8,M,-20.9,M,,*6C
$GPGSA,A,3,28,12,06,19,02,24,17,03,,,,,1.32,1.01,0.84*08
$GPRMC,000952.000,A,4011.5651,N,10505.3956,W,0.41,53.66,090517,,,A*40
$GPVTG,53.66,T,,M,0.41,N,0.75,K,A*0C
$GPGGA,000953.000,4011.5652,N,10505.3955,W,1,08,1.01,1541.8,M,-20.9,M,,*6D
$GPGSA,A,3,28,12,06,19,02,24,17,03,,,,,1.32,1.01,0.84*08
$GPGSV,3,1,09,06,79,102,27,19,57,045,23,02,47,212,29,12,41,314,19*75
$GPGSV,3,2,09,24,40,265,19,17,38,063,21,28,14,126,24,03,11,042,20*7A
$GPGSV,3,3,09,45,,,*71
$GPRMC,000953.000,A,4011.5652,N,10505.3955,W,0.47,44.97,090517,,,A*4F
$GPVTG,44.97,T,,M,0.47,N,0.87,K,A*0F
$GPGGA,000954.000,4011.5653,N,10505.3954,W,1,08,1.02,1541.8,M,-20.9,M,,*69
$GPGSA,A,3,28,12,06,19,02,24,17,03,,,,,1.32,1.02,0.84*0B
$GPRMC,000954.000,A,4011.5653,N,10505.3954,W,0.23,20.93,090517,,,A*4C
$GPVTG,20.93,T,,M,0.23,N,0.43,K,A*03
$GPGGA,000955.000,4011.5654,N,10505.3954,W,1,08,1.02,1541.8,M,-20.9,M,,*6F
$GPGSA,A,3,28,12,06,19,02,24,17,03,,,,,1.32,1.02,0.84*0B
$GPRMC,000955.000,A,4011.5654,N,10505.3954,W,0.01,305.23,090517,,,A*75
$GPVTG,305.23,T,,M,0.01,N,0.01,K,A*3A
$GPGGA,000956.000,4011.5654,N,10505.3954,W,1,08,1.01,1541.8,M,-20.9,M,,*6F
$GPGSA,A,3,28,12,06,19,02,24,17,03,,,,,1.32,1.01,0.84*08
$GPRMC,000956.000,A,4011.5654,N,10505.3954,W,0.27,351.28,090517,,,A*78
$GPVTG,351.28,T,,M,0.27,N,0.50,K,A*30
$GPGGA,000957.000,4011.5654,N,10505.3954,W,1,08,1.04,1541.8,M,-20.9,M,,*6B
$GPGSA,A,3,28,12,06,19,02,24,17,03,,,,,1.86,1.04,1.54*0E
$GPRMC,000957.000,A,4011.5654,N,10505.3954,W,0.08,252.82,090517,,,A*76
$GPVTG,252.82,T,,M,0.08,N,0.15,K,A*3E
$GPGGA,000958.000,4011.5654,N,10505.3954,W,1,08,1.02,1541.8,M,-20.9,M,,*62
$GPGSA,A,3,28,12,06,19,02,24,17,03,,,,,1.32,1.02,0.84*0B
$GPGSV,3,1,09,06,79,102,28,19,57,045,24,02,47,212,29,12,41,314,19*7D
$GPGSV,3,2,09,24,40,265,19,17,38,063,23,28,14,126,24,03,11,042,20*78
$GPGSV,3,3,09,45,,,*71
$GPRMC,000958.000,A,4011.5654,N,10505.3954,W,0.37,72.10,090517,,,A*4E
$GPVTG,72.10,T,,M,0.37,N,0.69,K,A*02
$GPGGA,000959.000,4011.5654,N,10505.3953,W,1,08,1.01,1541.8,M,-20.9,M,,*67
$GPGSA,A,3,28,12,06,19,02,24,17,03,,,,,1.32,1.01,0.84*08
$GPRMC,000959.000,A,4011.5654,N,10505.3953,W,0.04,6.16,090517,,,A*7D
$GPVTG,6.16,T,,M,0.04,N,0.08,K,A*30
$GPGGA,001000.000,4011.5655,N,10505.3953,W,1,08,1.04,1541.8,M,-20.9,M,,*67
$GPGSA,A,3,28,12,06,19,02,24,17,03,,,,,1.86,1.04,1.54*0E
$GPRMC,001000.000,A,4011.5655,N,10505.3953,W,0.16,359.43,090517,,,A*72
$GPVTG,359.43,T,,M,0.16,N,0.30,K,A*31
$GPGGA,001001.000,4011.5655,N,10505.3953,W,1,08,1.04,1541.8,M,-20.9,M,,*66
$GPGSA,A,3,28,12,06,19,02,24,17,03,,,,,1.86,1.04,1.54*0E
$GPRMC,001001.000,A,4011.5655,N,10505.3953,W,0.23,312.69,090517,,,A*72
$GPVTG,312.69,T,,M,0.23,N,0.43,K,A*34
$GPGGA,001002.000,4011.5655,N,10505.3954,W,1,08,1.01,1541.8,M,-20.9,M,,*67
$GPGSA,A,3,28,12,06,19,02,24,17,03,,,,,1.32,1.01,0.84*08
$GPRMC,001002.000,A,4011.5655,N,10505.3954,W,0.34,280.67,090517,,,A*74
$GPVTG,280.67,T,,M,0.34,N,0.62,K,A*35
$GPGGA,001003.000,4011.5656,N,10505.3955,W,1,08,1.02,1541.8,M,-20.9,M,,*67
$GPGSA,A,3,28,12,06,19,02,24,17,03,,,,,1.32,1.02,0.84*0B
$GPGSV,3,1,09,06,79,102,28,19,57,045,24,02,48,212,26,12,41,314,22*75
$GPGSV,3,2,09,24,40,265,18,17,38,063,23,28,14,126,23,03,11,042,19*74
$GPGSV,3,3,09,46,,,*72
$GPRMC,001003.000,A,4011.5656,N,10505.3955,W,0.82,256.83,090517,,,A*7B
$GPVTG,256.83,T,,M,0.82,N,1.51,K,A*38
$GPGGA,001004.000,4011.5655,N,10505.3958,W,1,08,1.02,1541.5,M,-20.9,M,,*63
$GPGSA,A,3,28,12,06,19,02,24,17,03,,,,,1.32,1.02,0.84*0B
$GPRMC,001004.000,A,4011.5655,N,10505.3958,W,0.44,255.10,090517,,,A*71
$GPVTG,255.10,T,,M,0.44,N,0.82,K,A*34
$GPGGA,001005.000,4011.5656,N,10505.3960,W,1,08,1.01,1541.3,M,-20.9,M,,*6F
$GPGSA,A,3,28,12,06,19,02,24,17,03,,,,,1.32,1.01,0.84*08
$GPRMC,001005.000,A,4011.5656,N,10505.3960,W,0.35,18.16,090517,,,A*43
$GPVTG,18.16,T,,M,0.35,N,0.65,K,A*06
$GPGGA,001006.000,4011.5656,N,10505.3960,W,1,08,1.02,1541.1,M,-20.9,M,,*6D
$GPGSA,A,3,28,12,06,19,02,24,17,03,,,,,1.32,1.02,0.84*0B
$GPRMC,001006.000,A,4011.5656,N,10505.3960,W,0.29,84.84,090517,,,A*43
$GPVTG,84.84,T,,M,0.29,N,0.54,K,A*07
$GPGGA,001007.000,4011.5657,N,10505.3962,W,1,08,1.02,1540.9,M,-20.9,M,,*66
$GPGSA,A,3,28,12,06,19,02,24,17,03,,,,,1.32,1.02,0.84*0B
$GPRMC,001007.000,A,4011.5657,N,10505.3962,W,0.17,29.34,090517,,,A*40
$GPVTG,29.34,T,,M,0.17,N,0.32,K,A*06
$GPGGA,001008.000,4011.5657,N,10505.3961,W,1,08,1.01,1540.9,M,-20.9,M,,*69
$GPGSA,A,3,28,12,06,19,02,24,17,03,,,,,1.32,1.01,0.84*08
$GPGSV,3,1,09,06,79,101,31,19,57,045,25,02,48,212,28,12,41,314,26*75
$GPGSV,3,2,09,24,40,265,18,17,38,063,24,28,14,126,23,03,11,042,19*73
$GPGSV,3,3,09,47,,,*73
$GPRMC,001008.000,A,4011.5657,N,10505.3961,W,0.41,15.14,090517,,,A*42
$GPVTG,15.14,T,,M,0.41,N,0.77,K,A*09
$GPGGA,001009.000,4011.5658,N,10505.3961,W,1,08,1.02,1540.9,M,-20.9,M,,*64
$GPGSA,A,3,28,12,06,19,02,24,17,03,,,,,1.32,1.02,0.84*0B
$GPRMC,001009.000,A,4011.5658,N,10505.3961,W,0.23,196.38,090517,,,A*7C
$GPVTG,196.38,T,,M,0.23,N,0.42,K,A*3F
$GPGGA,001010.000,4011.5658,N,10505.3961,W,1,08,1.02,1540.8,M,-20.9,M,,*6D
$GPGSA,A,3,28,12,06,19,02,24,17,03,,,,,1.32,1.02,0.84*0B
$GPRMC,001010.000,A,4011.5658,N,10505.3961,W,0.21,67.98,090517,,,A*43
$GPVTG,67.98,T,,M,0.21,N,0.39,K,A*04
$GPGGA,001011.000,4011.5658,N,10505.3961,W,1,08,1.02,1540.8,M,-20.9,M,,*6C
$GPGSA,A,3,28,12,06,19,02,24,17,03,,,,,1.32,1.02,0.84*0B
$GPRMC,001011.000,A,4011.5658,N,10505.3961,W,0.43,36.19,090517,,,A*4B
$GPVTG,36.19,T,,M,0.43,N,0.79,K,A*09
$GPGGA,001012.000,4011.5659,N,10505.3960,W,1,08,1.01,1540.8,M,-20.9,M,,*6C
$GPGSA,A,3,28,12,06,19,02,24,17,03,,,,,1.32,1.01,0.84*08
$GPRMC,001012.000,A,4011.5659,N,10505.3960,W,0.07,38.27,090517,,,A*4B
$GPVTG,38.27,T,,M,0.07,N,0.13,K,A*06
$GPGGA,001013.000,4011.5659,N,10505.3960,W,1,08,1.02,1540.8,M,-20.9,M,,*6E
$GPGSA,A,3,28,12,06,19,02,24,17,03,,,,,1.32,1.02,0.84*0B
$GPGSV,3,1,09,06,79,101,31,19,57,045,26,02,48,212,28,12,41,314,27*77
$GPGSV,3,2,09,24,40,265,17,17,38,063,23,28,14,126,22,03,11,042,19*7A
$GPGSV,3,3,09,49,,,*7D
$GPRMC,001013.000,A,4011.5659,N,10505.3960,W,0.39,180.44,090517,,,A*70
$GPVTG,180.44,T,,M,0.39,N,0.72,K,A*3B
$GPGGA,001014.000,4011.5658,N,10505.3960,W,1,08,1.02,1540.8,M,-20.9,M,,*68
$GPGSA,A,3,28,12,06,19,02,24,17,03,,,,,1.32,1.02,0.84*0B
$GPRMC,001014.000,A,4011.5658,N,10505.3960,W,0.14,77.11,090517,,,A*40
$GPVTG,77.11,T,,M,0.14,N,0.26,K,A*0C
$GPGGA,001015.000,4011.5658,N,10505.3959,W,1,08,1.02,1540.8,M,-20.9,M,,*63
$GPGSA,A,3,28,12,06,19,02,24,17,03,,,,,1.32,1.02,0.84*0B
$GPRMC,001015.000,A,4011.5658,N,10505.3959,W,0.61,139.91,090517,,,A*7A
$GPVTG,139.91,T,,M,0.61,N,1.13,K,A*3A
$GPGGA,001016.000,4011.5659,N,10505.3959,W,1,08,1.02,1540.7,M,-20.9,M,,*6E
$GPGSA,A,3,28,12,06,19,02,24,17,03,,,,,1.32,1.02,0.84*0B
$GPRMC,001016.000,A,4011.5659,N,10505.3959,W,0.45,82.75,090517,,,A*45
$GPVTG,82.75,T,,M,0.45,N,0.84,K,A*08
$GPGGA,001017.000,4011.5659,N,10505.3961,W,1,08,1.02,1540.6,M,-20.9,M,,*65
$GPGSA,A,3,28,12,06,19,02,24,17,03,,,,,1.32,1.02,0.84*0B
$GPRMC,001017.000,A,4011.5659,N,10505.3961,W,0.17,182.40,090517,,,A*7F
$GPVTG,182.40,T,,M,0.17,N,0.32,K,A*35
$GPGGA,001018.000,4011.5659,N,10505.3963,W,1,08,1.02,1540.6,M,-20.9,M,,*68
$GPGSA,A,3,28,12,06,19,02,24,17,03,,,,,1.32,1.02,0.84*0B
$GPGSV,3,1,09,06,79,101,31,19,56,046,27,02,48,212,28,12,41,314,27*74
$GPGSV,3,2,09,24,40,265,18,17,38,063,24,28,14,126,22,03,11,042,21*79
$GPGSV,3,3,09,49,,,*7D
$GPRMC,001018.000,A,4011.5659,N,10505.3963,W,0.28,246.82,090517,,,A*7B
$GPVTG,246.82,T,,M,0.28,N,0.53,K,A*3B
$GPGGA,001019.000,4011.5659,N,10505.3964,W,1,08,1.02,1540.6,M,-20.9,M,,*6E
$GPGSA,A,3,28,12,06,19,02,24,17,03,,,,,1.32,1.02,0.84*0B
$GPRMC,001019.000,A,4011.5659,N,10505.3964,W,0.09,277.32,090517,,,A*77
$GPVTG,277.32,T,,M,0.09,N,0.17,K,A*31
$GPGGA,001020.000,4011.5659,N,10505.3965,W,1,08,1.02,1540.6,M,-20.9,M,,*65
$GPGSA,A,3,28,12,06,19,02,24,17,03,,,,,1.32,1.02,0.84*0B
$GPRMC,001020.000,A,4011.5659,N,10505.3965,W,0.75,11.24,090517,,,A*42
$GPVTG,11.24,T,,M,0.75,N,1.39,K,A*02
$GPGGA,001021.000,4011.5661,N,10505.3965,W,1,08,1.04,1540.7,M,-20.9,M,,*68
$GPGSA,A,3,28,12,06,19,02,24,17,03,,,,,1.86,1.04,1.53*09
$GPRMC,001021.000,A,4011.5661,N,10505.3965,W,0.71,10.41,090517,,,A*4E
$GPVTG,10.41,T,,M,0.71,N,1.32,K,A*0F
$GPGGA,001022.000,4011.5662,N,10505.3963,W,1,08,1.04,1540.8,M,-20.9,M,,*61
$GPGSA,A,3,28,12,06,19,02,24,17,03,,,,,1.86,1.04,1.53*09
$GPRMC,001022.000,A,4011.5662,N,10505.3963,W,0.20,65.03,090517,,,A*48
$GPVTG,65.03,T,,M,0.20,N,0.37,K,A*0B
$GPGGA,001023.000,4011.5661,N,10505.3963,W,1,08,1.02,1540.7,M,-20.9,M,,*6A
$GPGSA,A,3,28,12,06,19,02,24,17,03,,,,,1.32,1.02,0.84*0B
$GPGSV,3,1,10,06,79,101,30,19,56,046,27,02,48,212,28,51,43,183,*71
$GPGSV,3,2,10,12,41,314,27,24,39,265,19,17,38,063,24,28,14,126,22*7D
$GPGSV,3,3,10,03,11,042,22,25,01,311,*78
$GPRMC,001023.000,A,4011.5661,N,10505.3963,W,0.19,223.85,090517,,,A*7E
$GPVTG,223.85,T,,M,0.19,N,0.35,K,A*3D
$GPGGA,001024.000,4011.5663,N,10505.3964,W,1,08,1.02,1540.6,M,-20.9,M,,*69
$GPGSA,A,3,28,12,06,19,02,24,17,03,,,,,1.32,1.02,0.84*0B
$GPRMC,001024.000,A,4011.5663,N,10505.3964,W,0.42,333.06,090517,,,A*79
$GPVTG,333.06,T,,M,0.42,N,0.77,K,A*3E
$GPGGA,001025.000,4011.5663,N,10505.3966,W,1,08,1.02,1540.5,M,-20.9,M,,*69
$GPGSA,A,3,28,12,06,19,02,24,17,03,,,,,1.32,1.02,0.84*0B
$GPRMC,001025.000,A,4011.5663,N,10505.3966,W,0.47,254.25,090517,,,A*7E
$GPVTG,254.25,T,,M,0.47,N,0.87,K,A*35
$GPGGA,001026.000,4011.5662,N,10505.3968,W,1,08,1.02,1540.5,M,-20.9,M,,*65
$GPGSA,A,3,28,12,06,19,02,24,17,03,,,,,1.32,1.02,0.84*0B
$GPRMC,001026.000,A,4011.5662,N,10505.3968,W,0.26,291.60,090517,,,A*7D
$GPVTG,291.60,T,,M,0.26,N,0.49,K,A*38
$GPGGA,001027.000,4011.5662,N,10505.3969,W,1,08,1.02,1540.5,M,-20.9,M,,*65
$GPGSA,A,3,28,12,06,19,02,24,17,03,,,,,1.32,1.02,0.84*0B
$GPRMC,001027.000,A,4011.5662,N,10505.3969,W,0.38,349.23,090517,,,A*71
$GPVTG,349.23,T,,M,0.38,N,0.71,K,A*3F
$GPGGA,001028.000,4011.5663,N,10505.3969,W,1,08,1.05,1540.5,M,-20.9,M,,*6C
$GPGSA,A,3,28,12,06,19,02,24,17,03,,,,,1.86,1.05,1.53*08
$GPGSV,3,1,10,06,79,101,31,19,56,046,28,02,48,212,28,51,43,183,*7F
$GPGSV,3,2,10,12,41,314,26,24,39,265,21,17,38,063,25,28,14,126,21*75
$GPGSV,3,3,10,03,11,042,23,25,01,311,*79
$GPRMC,001028.000,A,4011.5663,N,10505.3969,W,0.19,310.18,090517,,,A*78
$GPVTG,310.18,T,,M,0.19,N,0.34,K,A*39
$GPGGA,001029.000,4011.5664,N,10505.3969,W,1,08,1.02,1540.5,M,-20.9,M,,*6D
$GPGSA,A,3,28,12,06,19,02,24,17,03,,,,,1.32,1.02,0.84*0B
$GPRMC,001029.000,A,4011.5664,N,10505.3969,W,0.49,171.02,090517,,,A*75
$GPVTG,171.02,T,,M,0.49,N,0.91,K,A*3D
$GPGGA,001030.000,4011.5662,N,10505.3969,W,1,08,1.02,1540.5,M,-20.9,M,,*63
$GPGSA,A,3,28,12,06,19,02,24,17,03,,,,,1.32,1.02,0.84*0B
$GPRMC,001030.000,A,4011.5662,N,10505.3969,W,0.25,103.50,090517,,,A*73
$GPVTG,103.50,T,,M,0.25,N,0.46,K,A*3F
$GPGGA,001031.000,4011.5662,N,10505.3968,W,1,08,1.02,1540.5,M,-20.9,M,,*63
$GPGSA,A,3,28,12,06,19,02,24,17,03,,,,,1.32,1.02,0.84*0B
$GPRMC,001031.000,A,4011.5662,N,10505.3968,W,0.13,91.10,090517,,,A*48
$GPVTG,91.10,T,,M,0.13,N,0.25,K,A*01
$GPGGA,001032.000,4011.5662,N,10505.3968,W,1,08,1.02,1540.5,M,-20.9,M,,*60
$GPGSA,A,3,28,12,06,19,02,24,17,03,,,,,1.32,1.02,0.84*0B
$GPRMC,001032.000,A,4011.5662,N,10505.3968,W,0.17,59.27,090517,,,A*4F
$GPVTG,59.27,T,,M,0.17,N,0.32,K,A*03
$GPGGA,001033.000,4011.5663,N,10505.3967,W,1,08,1.02,1540.5,M,-20.9,M,,*6F
$GPGSA,A,3,28,12,06,19,02,24,17,03,,,,,1.32,1.02,0.84*0B
$GPGSV,3,1,10,06,79,101,31,19,56,046,28,02,48,212,28,12,41,314,25*71
$GPGSV,3,2,10,24,39,265,21,17,38,063,25,48,35,219,,28,14,126,21*71
$GPGSV,3,3,10,03,11,042,22,25,01,311,*78
$GPRMC,001033.000,A,4011.5663,N,10505.3967,W,0.47,47.10,090517,,,A*4E
$GPVTG,47.10,T,,M,0.47,N,0.87,K,A*03
$GPGGA,001034.000,4011.5663,N,10505.3966,W,1,08,1.02,1540.4,M,-20.9,M,,*68
$GPGSA,A,3,28,12,06,19,02,24,17,03,,,,,1.32,1.02,0.84*0B
$GPRMC,001034.000,A,4011.5663,N,10505.3966,W,0.17,166.55,090517,,,A*7E
$GPVTG,166.55,T,,M,0.17,N,0.32,K,A*3B
$GPGGA,001035.000,4011.5663,N,10505.3966,W,1,08,1.02,1540.4,M,-20.9,M,,*69
$GPGSA,A,3,28,12,06,19,02,24,17,03,,,,,1.32,1.02,0.84*0B
$GPRMC,001035.000,A,4011.5663,N,10505.3966,W,0.25,116.30,090517,,,A*7A
$GPVTG,116.30,T,,M,0.25,N,0.46,K,A*3D
$GPGGA,001036.000,4011.5663,N,10505.3965,W,1,08,1.02,1540.4,M,-20.9,M,,*69
$GPGSA,A,3,28,12,06,19,02,24,17,03,,,,,1.32,1.02,0.84*0B
$GPRMC,001036.000,A,4011.5663,N,10505.3965,W,0.23,54.46,090517,,,A*4A
$GPVTG,54.46,T,,M,0.23,N,0.43,K,A*08
$GPGGA,001037.000,4011.5663,N,10505.3965,W,1,08,1.02,1540.4,M,-20.9,M,,*68
$GPGSA,A,3,28,12,06,19,02,24,17,03,,,,,1.32,1.02,0.84*0B
$GPRMC,001037.000,A,4011.5663,N,10505.3965,W,0.01,307.95,090517,,,A*70
$GPVTG,307.95,T,,M,0.01,N,0.02,K,A*36
$GPGGA,001038.000,4011.5663,N,10505.3965,W,1,08,1.02,1540.4,M,-20.9,M,,*67
$GPGSA,A,3,28,12,06,19,02,24,17,03,,,,,1.32,1.02,0.84*0B
$GPGSV,3,1,10,06,79,101,31,19,56,046,29,02,48,212,28,12,41,314,24*71
$GPGSV,3,2,10,24,39,265,16,17,38,063,20,48,35,219,,28,14,126,21*70
$GPGSV,3,3,10,03,11,041,20,25,01,311,*79
$GPRMC,001038.000,A,4011.5663,N,10505.3965,W,0.10,145.74,090517,,,A*74
$GPVTG,145.74,T,,M,0.10,N,0.19,K,A*37
$GPGGA,001039.000,4011.5663,N,10505.3964,W,1,08,1.02,1540.4,M,-20.9,M,,*67
$GPGSA,A,3,28,12,06,19,02,24,17,03,,,,,1.32,1.02,0.84*0B
$GPRMC,001039.000,A,4011.5663,N,10505.3964,W,0.01,99.10,090517,,,A*46
$GPVTG,99.10,T,,M,0.01,N,0.02,K,A*0F
$GPGGA,001040.000,4011.5663,N,10505.3964,W,1,08,1.02,1540.4,M,-20.9,M,,*69
$GPGSA,A,3,28,12,06,19,02,24,17,03,,,,,1.32,1.02,0.84*0B
$GPRMC,001040.000,A,4011.5663,N,10505.3964,W,0.32,63.16,090517,,,A*4B
$GPVTG,63.16,T,,M,0.32,N,0.60,K,A*08
$GPGGA,001041.000,4011.5663,N,10505.3963,W,1,08,1.02,1540.4,M,-20.9,M,,*6F
$GPGSA,A,3,28,12,06,19,02,24,17,03,,,,,1.32,1.02,0.84*0B
$GPRMC,001041.000,A,4011.5663,N,10505.3963,W,0.51,74.73,090517,,,A*4D
$GPVTG,74.73,T,,M,0.51,N,0.94,K,A*03
$GPGGA,001042.000,4011.5664,N,10505.3962,W,1,08,1.02,1540.4,M,-20.9,M,,*6A
$GPGSA,A,3,28,12,06,19,02,24,17,03,,,,,1.32,1.02,0.84*0B
$GPRMC,001042.000,A,4011.5664,N,10505.3962,W,0.43,112.20,090517,,,A*7C
$GPVTG,112.20,T,,M,0.43,N,0.80,K,A*32
$GPGGA,001043.000,4011.5663,N,10505.3960,W,1,08,1.02,1540.4,M,-20.9,M,,*6E
$GPGSA,A,3,28,12,06,19,02,24,17,03,,,,,1.32,1.02,0.84*0B
$GPGSV,3,1,10,06,79,099,30,19,56,046,29,02,48,212,29,12,41,314,24*71
$GPGSV,3,2,10,24,39,265,12,17,38,063,18,28,14,126,21,03,11,041,21*7A
$GPGSV,3,3,10,25,01,311,,34,,,*4A
$GPRMC,001043.000,A,4011.5663,N,10505.3960,W,0.25,63.74,090517,,,A*4E
$GPVTG,63.74,T,,M,0.25,N,0.46,K,A*0E
$GPGGA,001044.000,4011.5664,N,10505.3959,W,1,08,1.02,1540.3,M,-20.9,M,,*63
$GPGSA,A,3,28,12,06,19,02,24,17,03,,,,,1.32,1.02,0.84*0B
$GPRMC,001044.000,A,4011.5664,N,10505.3959,W,0.16,276.27,090517,,,A*74
$GPVTG,276.27,T,,M,0.16,N,0.30,K,A*3F
$GPGGA,001045.000,4011.5664,N,10505.3960,W,1,08,1.02,1540.3,M,-20.9,M,,*68
$GPGSA,A,3,28,12,06,19,02,24,17,03,,,,,1.32,1.02,0.84*0B
$GPRMC,001045.000,A,4011.5664,N,10505.3960,W,0.36,357.68,090517,,,A*74
$GPVTG,357.68,T,,M,0.36,N,0.66,K,A*37
$GPGGA,001046.000,4011.5665,N,10505.3960,W,1,08,1.05,1540.3,M,-20.9,M,,*6D
$GPGSA,A,3,28,12,06,19,02,24,17,03,,,,,1.85,1.05,1.53*0B
$GPRMC,001046.000,A,4011.5665,N,10505.3960,W,0.53,12.31,090517,,,A*4B
$GPVTG,12.31,T,,M,0.53,N,0.97,K,A*04
$GPGGA,001047.000,4011.5666,N,10505.3960,W,1,08,1.05,1540.3,M,-20.9,M,,*6F
$GPGSA,A,3,28,12,06,19,02,24,17,03,,,,,1.85,1.05,1.53*0B
$GPRMC,001047.000,A,4011.5666,N,10505.3960,W,0.45,318.92,090517,,,A*7E
$GPVTG,318.92,T,,M,0.45,N,0.84,K,A*31
$GPGGA,001048.000,4011.5667,N,10505.3961,W,1,08,1.02,1540.3,M,-20.9,M,,*67
$GPGSA,A,3,28,12,06,19,02,24,17,03,,,,,1.32,1.02,0.84*0B
$GPGSV,3,1,10,06,79,099,31,19,56,046,29,02,48,212,30,12,42,314,21*7E
$GPGSV,3,2,10,24,39,265,18,17,38,063,20,28,14,126,18,03,11,041,21*71
$GPGSV,3,3,10,25,01,311,,35,,,*4B
$GPRMC,001048.000,A,4011.5667,N,10505.3961,W,0.36,301.04,090517,,,A*72
$GPVTG,301.04,T,,M,0.36,N,0.66,K,A*3E
$GPGGA,001049.000,4011.5668,N,10505.3962,W,1,08,1.02,1540.3,M,-20.9,M,,*6A
$GPGSA,A,3,28,12,06,19,02,24,17,03,,,,,1.32,1.02,0.84*0B
$GPRMC,001049.000,A,4011.5668,N,10505.3962,W,0.50,280.99,090517,,,A*73
$GPVTG,280.99,T,,M,0.50,N,0.92,K,A*39
$GPGGA,001050.000,4011.5668,N,10505.3964,W,1,08,1.02,1540.3,M,-20.9,M,,*64
$GPGSA,A,3,28,12,06,19,02,24,17,03,,,,,1.32,1.02,0.84*0B
$GPRMC,001050.000,A,4011.5668,N,10505.3964,W,0.55,224.15,090517,,,A*72
$GPVTG,224.15,T,,M,0.55,N,1.03,K,A*3F
$GPGGA,001051.000,4011.5667,N,10505.3965,W,1,08,1.02,1540.3,M,-20.9,M,,*6B
$GPGSA,A,3,28,12,06,19,02,24,17,03,,,,,1.32,1.02,0.84*0B
$GPRMC,001051.000,A,4011.5667,N,10505.3965,W,0.09,358.14,090517,,,A*7F
$GPVTG,358.14,T,,M,0.09,N,0.17,K,A*39
$GPGGA,001052.000,4011.5667,N,10505.3965,W,1,08,1.05,1540.2,M,-20.9,M,,*6E
$GPGSA,A,3,28,12,06,19,02,24,17,03,,,,,1.85,1.05,1.53*0B
$GPRMC,001052.000,A,4011.5667,N,10505.3965,W,0.20,92.06,090517,,,A*41
$GPVTG,92.06,T,,M,0.20,N,0.37,K,A*06
$GPGGA,001053.000,4011.5667,N,10505.3964,W,1,08,1.02,1540.2,M,-20.9,M,,*69
$GPGSA,A,3,28,12,06,19,02,24,17,03,,,,,1.32,1.02,0.84*0B
$GPGSV,3,1,10,06,79,099,29,19,56,046,29,02,48,212,32,12,42,314,23*77
$GPGSV,3,2,10,24,39,265,27,17,38,063,20,28,14,126,18,03,11,041,18*77
$GPGSV,3,3,10,25,01,311,,36,,,*48
$GPRMC,001053.000,A,4011.5667,N,10505.3964,W,0.21,300.04,090517,,,A*7A
$GPVTG,300.04,T,,M,0.21,N,0.39,K,A*33
$GPGGA,001054.000,4011.5667,N,10505.3965,W,1,08,1.02,1540.2,M,-20.9,M,,*6F
$GPGSA,A,3,28,12,06,19,02,24,17,03,,,,,1.32,1.02,0.84*0B
$GPRMC,001054.000,A,4011.5667,N,10505.3965,W,0.62,247.23,090517,,,A*7C
$GPVTG,247.23,T,,M,0.62,N,1.15,K,A*3C
$GPGGA,001055.000,4011.5671,N,10505.3966,W,1,08,1.02,1540.2,M,-20.9,M,,*6A
$GPGSA,A,3,28,12,06,19,02,24,17,03,,,,,1.32,1.02,0.84*0B
$GPRMC,001055.000,A,4011.5671,N,10505.3966,W,0.65,327.72,090517,,,A*7D
$GPVTG,327.72,T,,M,0.65,N,1.20,K,A*3E
$GPGGA,001056.000,4011.5673,N,10505.3966,W,1,08,1.02,1540.3,M,-20.9,M,,*6A
$GPGSA,A,3,28,12,06,19,02,24,17,03,,,,,1.32,1.02,0.84*0B
$GPRMC,001056.000,A,4011.5673,N,10505.3966,W,0.50,342.93,090517,,,A*76
$GPVTG,342.93,T,,M,0.50,N,0.92,K,A*3C
$GPGGA,001057.000,4011.5673,N,10505.3965,W,1,08,1.02,1540.2,M,-20.9,M,,*69
$GPGSA,A,3,28,12,06,19,02,24,17,03,,,,,1.32,1.02,0.84*0B
$GPRMC,001057.000,A,4011.5673,N,10505.3965,W,0.16,277.74,090517,,,A*78
$GPVTG,277.74,T,,M,0.16,N,0.31,K,A*39
$GPGGA,001058.000,4011.5674,N,10505.3965,W,1,08,1.02,1540.2,M,-20.9,M,,*61
$GPGSA,A,3,28,12,06,19,02,24,17,03,,,,,1.32,1.02,0.84*0B
$GPGSV,3,1,10,06,79,099,28,19,56,046,30,02,48,212,32,12,42,314,24*79
$GPGSV,3,2,10,24,39,265,27,17,38,063,20,28,14,126,16,03,11,041,17*76
$GPGSV,3,3,10,25,01,312,,38,,,*45
$GPRMC,001058.000,A,4011.5674,N,10505.3965,W,0.46,218.11,090517,,,A*7F
$GPVTG,218.11,T,,M,0.46,N,0.85,K,A*39
$GPGGA,001059.000,4011.5673,N,10505.3965,W,1,08,1.02,1540.2,M,-20.9,M,,*67
$GPGSA,A,3,28,12,06,19,02,24,17,03,,,,,1.32,1.02,0.84*0B
$GPRMC,001059.000,A,4011.5673,N,10505.3965,W,0.62,187.64,090517,,,A*78
$GPVTG,187.64,T,,M,0.62,N,1.14,K,A*31
$GPGGA,001100.000,4011.5673,N,10505.3966,W,1,08,1.02,1540.3,M,-20.9,M,,*68
$GPGSA,A,3,28,12,06,19,02,24,17,03,,,,,1.32,1.02,0.84*0B
$GPRMC,001100.000,A,4011.5673,N,10505.3966,W,0.43,209.75,090517,,,A*70
$GPVTG,209.75,T,,M,0.43,N,0.79,K,A*3D
$GPGGA,001101.000,4011.5674,N,10505.3966,W,1,08,1.02,1540.3,M,-20.9,M,,*6E
$GPGSA,A,3,28,12,06,19,02,24,17,03,,,,,1.32,1.02,0.84*0B
$GPRMC,001101.000,A,4011.5674,N,10505.3966,W,0.36,238.66,090517,,,A*74
$GPVTG,238.66,T,,M,0.36,N,0.67,K,A*30
$GPGGA,001102.000,4011.5675,N,10505.3968,W,1,08,1.02,1540.2,M,-20.9,M,,*63
$GPGSA,A,3,28,12,06,19,02,24,17,03,,,,,1.32,1.02,0.84*0B
$GPRMC,001102.000,A,4011.5675,N,10505.3968,W,0.64,273.65,090517,,,A*73
$GPVTG,273.65,T,,M,0.64,N,1.19,K,A*33
$GPGGA,001103.000,4011.5675,N,10505.3967,W,1,08,1.02,1540.3,M,-20.9,M,,*6C
$GPGSA,A,3,28,12,06,19,02,24,17,03,,,,,1.32,1.02,0.84*0B
$GPGSV,3,1,10,06,79,099,28,19,56,046,29,02,48,212,32,12,42,314,24*71
$GPGSV,3,2,10,24,39,265,29,17,38,063,20,28,14,126,16,03,11,041,16*79
$GPGSV,3,3,10,25,01,312,,38,,,*45
$GPRMC,001103.000,A,4011.5675,N,10505.3967,W,1.01,281.46,090517,,,A*73
$GPVTG,281.46,T,,M,1.01,N,1.87,K,A*3A
$GPGGA,001104.000,4011.5675,N,10505.3969,W,1,08,1.02,1540.3,M,-20.9,M,,*65
$GPGSA,A,3,28,12,06,19,02,24,17,03,,,,,1.32,1.02,0.84*0B
$GPRMC,001104.000,A,4011.5675,N,10505.3969,W,0.44,293.07,090517,,,A*7C
$GPVTG,293.07,T,,M,0.44,N,0.82,K,A*38
$GPGGA,001105.000,4011.5675,N,10505.3967,W,1,08,1.02,1540.3,M,-20.9,M,,*6A
$GPGSA,A,3,28,12,06,19,02,24,17,03,,,,,1.32,1.02,0.84*0B
$GPRMC,001105.000,A,4011.5675,N,10505.3967,W,0.01,278.23,090517,,,A*71
$GPVTG,278.23,T,,M,0.01,N,0.02,K,A*32
$GPGGA,001106.000,4011.5674,N,10505.3964,W,1,08,1.02,1540.3,M,-20.9,M,,*6B
$GPGSA,A,3,28,12,06,19,02,24,17,03,,,,,1.32,1.02,0.84*0B
$GPRMC,001106.000,A,4011.5674,N,10505.3964,W,0.32,254.84,090517,,,A*73
$GPVTG,254.84,T,,M,0.32,N,0.60,K,A*35
$GPGGA,001107.000,4011.5674,N,10505.3959,W,1,08,1.02,1540.4,M,-20.9,M,,*63
$GPGSA,A,3,28,12,06,19,02,24,17,03,,,,,1.32,1.02,0.84*0B
$GPRMC,001107.000,A,4011.5674,N,10505.3959,W,0.44,28.98,090517,,,A*49
$GPVTG,28.98,T,,M,0.44,N,0.81,K,A*0F
$GPGGA,001108.000,4011.5675,N,10505.3958,W,1,08,1.02,1540.4,M,-20.9,M,,*6C
$GPGSA,A,3,28,12,06,19,02,24,17,03,,,,,1.32,1.02,0.84*0B
$GPGSV,3,1,10,06,79,099,28,19,56,046,29,02,48,212,32,12,42,314,25*70
$GPGSV,3,2,10,24,39,265,29,17,38,063,20,28,14,126,16,03,11,041,14*7B
$GPGSV,3,3,10,25,01,312,,41,,,*4B
$GPRMC,001108.000,A,4011.5675,N,10505.3958,W,0.31,320.52,090517,,,A*79
$GPVTG,320.52,T,,M,0.31,N,0.58,K,A*34
$GPGGA,001109.000,4011.5675,N,10505.3959,W,1,08,1.02,1540.4,M,-20.9,M,,*6C
$GPGSA,A,3,28,12,06,19,02,24,17,03,,,,,1.32,1.02,0.84*0B
$GPRMC,001109.000,A,4011.5675,N,10505.3959,W,0.35,243.59,090517,,,A*72
$GPVTG,243.59,T,,M,0.35,N,0.65,K,A*31
$GPGGA,001110.000,4011.5675,N,10505.3960,W,1,08,1.02,1540.4,M,-20.9,M,,*6E
$GPGSA,A,3,28,12,06,19,02,24,17,03,,,,,1.32,1.02,0.84*0B
$GPRMC,001110.000,A,4011.5675,N,10505.3960,W,0.25,17.73,090517,,,A*4A
$GPVTG,17.73,T,,M,0.25,N,0.47,K,A*0B
$GPGGA,001111.000,4011.5676,N,10505.3960,W,1,08,1.02,1540.4,M,-20.9,M,,*6C
$GPGSA,A,3,28,12,06,19,02,24,17,03,,,,,1.32,1.02,0.84*0B
$GPRMC,001111.000,A,4011.5676,N,10505.3960,W,0.10,330.51,090517,,,A*78
$GPVTG,330.51,T,,M,0.10,N,0.18,K,A*31
$GPGGA,001112.000,4011.5676,N,10505.3960,W,1,08,1.02,1540.4,M,-20.9,M,,*6F
$GPGSA,A,3,28,12,06,19,02,24,17,03,,,,,1.32,1.02,0.84*0B
$GPRMC,001112.000,A,4011.5676,N,10505.3960,W,0.34,207.03,090517,,,A*7F
$GPVTG,207.03,T,,M,0.34,N,0.63,K,A*39
$GPGGA,001113.000,4011.5675,N,10505.3961,W,1,08,1.02,1540.4,M,-20.9,M,,*6C
$GPGSA,A,3,28,12,06,19,02,24,17,03,,,,,1.32,1.02,0.84*0B
$GPGSV,3,1,10,06,79,099,27,19,56,046,29,02,48,213,33,12,42,314,25*7F
$GPGSV,3,2,10,24,39,265,29,17,38,063,20,28,14,126,17,03,11,041,16*78
$GPGSV,3,3,10,25,01,312,,43,,,*49
$GPRMC,001113.000,A,4011.5675,N,10505.3961,W,0.30,270.57,090517,,,A*79
$GPVTG,270.57,T,,M,0.30,N,0.55,K,A*39
$GPGGA,001114.000,4011.5675,N,10505.3962,W,1,08,1.02,1540.4,M,-20.9,M,,*68
$GPGSA,A,3,28,12,06,19,02,24,17,03,,,,,1.32,1.02,0.84*0B
$GPRMC,001114.000,A,4011.5675,N,10505.3962,W,0.54,263.25,090517,,,A*78
$GPVTG,263.25,T,,M,0.54,N,0.99,K,A*3C
$GPGGA,001115.000,4011.5675,N,10505.3964,W,1,08,1.02,1540.4,M,-20.9,M,,*6F
$GPGSA,A,3,28,12,06,19,02,24,17,03,,,,,1.32,1.02,0.84*0B
$GPRMC,001115.000,A,4011.5675,N,10505.3964,W,0.18,242.51,090517,,,A*77
$GPVTG,242.51,T,,M,0.18,N,0.34,K,A*33
$GPGGA,001116.000,4011.5675,N,10505.3964,W,1,08,1.02,1540.4,M,-20.9,M,,*6C
$GPGSA,A,3,28,12,06,19,02,24,17,03,,,,,1.32,1.02,0.84*0B
$GPRMC,001116.000,A,4011.5675,N,10505.3964,W,0.19,267.02,090517,,,A*74
$GPVTG,267.02,T,,M,0.19,N,0.34,K,A*33
$GPGGA,001117.000,4011.5675,N,10505.3965,W,1,08,1.02,1540.4,M,-20.9,M,,*6C
$GPGSA,A,3,28,12,06,19,02,24,17,03,,,,,1.32,1.02,0.84*0B
$GPRMC,001117.000,A,4011.5675,N,10505.3965,W,0.12,62.68,090517,,,A*44
$GPVTG,62.68,T,,M,0.12,N,0.22,K,A*04
$GPGGA,001118.000,4011.5675,N,10505.3964,W,1,08,1.02,1540.4,M,-20.9,M,,*62
$GPGSA,A,3,28,12,06,19,02,24,17,03,,,,,1.32,1.02,0.84*0B
$GPGSV,3,1,10,06,79,098,27,19,56,046,28,02,48,213,33,12,42,314,26*7C
$GPGSV,3,2,10,24,39,265,29,17,38,063,21,28,14,126,16,03,11,041,17*79
$GPGSV,3,3,10,25,01,312,,45,,,*4F
$GPRMC,001118.000,A,4011.5675,N,10505.3964,W,0.44,76.34,090517,,,A*45
$GPVTG,76.34,T,,M,0.44,N,0.81,K,A*02
$GPGGA,001119.000,4011.5675,N,10505.3963,W,1,08,1.02,1540.4,M,-20.9,M,,*64
$GPGSA,A,3,28,12,06,19,02,24,17,03,,,,,1.32,1.02,0.84*0B
$GPRMC,001119.000,A,4011.5675,N,10505.3963,W,0.26,69.39,090517,,,A*44
$GPVTG,69.39,T,,M,0.26,N,0.49,K,A*01
$GPGGA,001120.000,4011.5675,N,10505.3962,W,1,08,1.02,1540.4,M,-20.9,M,,*6F
$GPGSA,A,3,28,12,06,19,02,24,17,03,,,,,1.32,1.02,0.84*0B
$GPRMC,001120.000,A,4011.5675,N,10505.3962,W,0.09,184.75,090517,,,A*78
$GPVTG,184.75,T,,M,0.09,N,0.17,K,A*3D
$GPGGA,001121.000,4011.5675,N,10505.3962,W,1,08,1.02,1540.4,M,-20.9,M,,*6E
$GPGSA,A,3,28,12,06,19,02,24,17,03,,,,,1.32,1.02,0.84*0B
$GPRMC,001121.000,A,4011.5675,N,10505.3962,W,0.17,299.55,090517,,,A*7B
$GPVTG,299.55,T,,M,0.17,N,0.31,K,A*3B
$GPGGA,001122.000,4011.5675,N,10505.3962,W,1,08,1.02,1540.4,M,-20.9,M,,*6D
$GPGSA,A,3,28,12,06,19,02,24,17,03,,,,,1.32,1.02,0.84*0B
$GPRMC,001122.000,A,4011.5675,N,10505.3962,W,0.12,97.48,090517,,,A*4D
$GPVTG,97.48,T,,M,0.12,N,0.23,K,A*0D
$GPGGA,001123.000,4011.5675,N,10505.3962,W,1,08,1.02,1540.4,M,-20.9,M,,*6C
$GPGSA,A,3,28,12,06,19,02,24,17,03,,,,,1.32,1.02,0.84*0B
$GPGSV,3,1,10,06,79,098,27,19,56,046,28,02,48,213,33,12,42,314,26*7C
$GPGSV,3,2,10,24,39,265,29,17,38,063,20,28,14,126,16,03,11,041,18*77
$GPGSV,3,3,10,25,01,312,,46,,,*4C
$GPRMC,001123.000,A,4011.5675,N,10505.3962,W,0.24,75.01,090517,,,A*48
$GPVTG,75.01,T,,M,0.24,N,0.44,K,A*08
$GPGGA,001124.000,4011.5675,N,10505.3961,W,1,08,1.02,1540.4,M,-20.9,M,,*68
$GPGSA,A,3,28,12,06,19,02,24,17,03,,,,,1.32,1.02,0.84*0B
$GPRMC,001124.000,A,4011.5675,N,10505.3961,W,0.40,32.70,090517,,,A*4B
$GPVTG,32.70,T,,M,0.40,N,0.74,K,A*0C
$GPGGA,001125.000,4011.5676,N,10505.3960,W,1,08,1.02,1540.4,M,-20.9,M,,*6B
$GPGSA,A,3,28,12,06,19,02,24,17,03,,,,,1.32,1.02,0.84*0B
$GPRMC,001125.000,A,4011.5676,N,10505.3960,W,0.14,344.72,090517,,,A*79
$GPVTG,344.72,T,,M,0.14,N,0.26,K,A*3A
$GPGGA,001126.000,4011.5677,N,10505.3960,W,1,08,1.02,1540.4,M,-20.9,M,,*69
$GPGSA,A,3,28,12,06,19,02,24,17,03,,,,,1.32,1.02,0.84*0B
$GPRMC,001126.000,A,4011.5677,N,10505.3960,W,0.22,87.20,090517,,,A*45
$GPVTG,87.20,T,,M,0.22,N,0.41,K,A*05
$GPGGA,001127.000,4011.5677,N,10505.3959,W,1,08,1.02,1540.4,M,-20.9,M,,*62
$GPGSA,A,3,28,12,06,19,02,24,17,03,,,,,1.32,1.02,0.84*0B
$GPRMC,001127.000,A,4011.5677,N,10505.3959,W,0.33,176.38,090517,,,A*78
$GPVTG,176.38,T,,M,0.33,N,0.62,K,A*32
$GPGGA,001128.000,4011.5676,N,10505.3959,W,1,08,1.02,1540.4,M,-20.9,M,,*6C
$GPGSA,A,3,28,12,06,19,02,24,17,03,,,,,1.32,1.02,0.84*0B
$GPGSV,3,1,10,06,79,098,28,19,56,046,27,02,48,213,33,12,42,314,26*7C
$GPGSV,3,2,10,24,39,265,29,17,38,063,19,28,14,126,16,03,11,041,19*7C
$GPGSV,3,3,10,25,01,312,,47,,,*4D
$GPRMC,001128.000,A,4011.5676,N,10505.3959,W,0.25,95.88,090517,,,A*46
$GPVTG,95.88,T,,M,0.25,N,0.47,K,A*05
$GPGGA,001129.000,4011.5676,N,10505.3958,W,1,08,1.02,1540.4,M,-20.9,M,,*6C
$GPGSA,A,3,28,12,06,19,02,24,17,03,,,,,1.32,1.02,0.84*0B
$GPRMC,001129.000,A,4011.5676,N,10505.3958,W,0.43,226.41,090517,,,A*79
$GPVTG,226.41,T,,M,0.43,N,0.79,K,A*37
$GPGGA,001130.000,4011.5675,N,10505.3959,W,1,08,1.02,1540.4,M,-20.9,M,,*66
$GPGSA,A,3,28,12,06,19,02,24,17,03,,,,,1.32,1.02,0.84*0B
$GPRMC,001130.000,A,4011.5675,N,10505.3959,W,0.07,98.28,090517,,,A*4B
$GPVTG,98.28,T,,M,0.07,N,0.12,K,A*02
$GPGGA,001131.000,4011.5675,N,10505.3959,W,1,08,1.02,1540.4,M,-20.9,M,,*67
$GPGSA,A,3,28,12,06,19,02,24,17,03,,,,,1.32,1.02,0.84*0B
$GPRMC,001131.000,A,4011.5675,N,10505.3959,W,0.29,36.03,090517,,,A*4B
$GPVTG,36.03,T,,M,0.29,N,0.54,K,A*01
$GPGGA,001132.000,4011.5676,N,10505.3958,W,1,08,1.02,1540.4,M,-20.9,M,,*66
$GPGSA,A,3,28,12,06,19,02,24,17,03,,,,,1.32,1.02,0.84*0B
$GPRMC,001132.000,A,4011.5676,N,10505.3958,W,0.44,89.55,090517,,,A*46
$GPVTG,89.55,T,,M,0.44,N,0.81,K,A*05
$GPGGA,001133.000,4011.5676,N,10505.3956,W,1,08,1.02,1540.4,M,-20.9,M,,*69
$GPGSA,A,3,28,12,06,19,02,24,17,03,,,,,1.32,1.02,0.84*0B
$GPGSV,3,1,10,06,79,098,27,19,56,046,28,02,48,213,33,12,42,314,26*7C
$GPGSV,3,2,10,24,39,264,28,17,38,063,14,28,14,126,16,03,11,041,18*70
$GPGSV,3,3,10,25,01,312,,47,,,*4D
$GPRMC,001133.000,A,4011.5676,N,10505.3956,W,0.60,81.63,090517,,,A*42
$GPVTG,81.63,T,,M,0.60,N,1.12,K,A*05
$GPGGA,001134.000,4011.5673,N,10505.3953,W,1,08,1.02,1540.4,M,-20.9,M,,*6E
$GPGSA,A,3,28,12,06,19,02,24,17,03,,,,,1.32,1.02,0.84*0B
$GPRMC,001134.000,A,4011.5673,N,10505.3953,W,0.71,150.97,090517,,,A*73
$GPVTG,150.97,T,,M,0.71,N,1.32,K,A*31
$GPGGA,001135.000,4011.5673,N,10505.3950,W,1,08,1.02,1540.3,M,-20.9,M,,*6B
$GPGSA,A,3,28,12,06,19,02,24,17,03,,,,,1.32,1.02,0.84*0B
$GPRMC,001135.000,A,4011.5673,N,10505.3950,W,0.18,45.61,090517,,,A*42
$GPVTG,45.61,T,,M,0.18,N,0.33,K,A*02
$GPGGA,001136.000,4011.5672,N,10505.3947,W,1,08,1.02,1540.3,M,-20.9,M,,*6F
$GPGSA,A,3,28,12,06,19,02,24,17,03,,,,,1.32,1.02,0.84*0B
$GPRMC,001136.000,A,4011.5672,N,10505.3947,W,0.15,97.41,090517,,,A*46
$GPVTG,97.41,T,,M,0.15,N,0.28,K,A*08
$GPGGA,001137.000,4011.5671,N,10505.3945,W,1,08,1.02,1540.3,M,-20.9,M,,*6F
$GPGSA,A,3,28,12,06,19,02,24,17,03,,,,,1.32,1.02,0.84*0B
$GPRMC,001137.000,A,4011.5671,N,10505.3945,W,0.10,52.83,090517,,,A*44
$GPVTG,52.83,T,,M,0.10,N,0.18,K,A*09
$GPGGA,001138.000,4011.5672,N,10505.3943,W,1,08,1.02,1540.2,M,-20.9,M,,*64
$GPGSA,A,3,28,12,06,19,02,24,17,03,,,,,1.32,1.02,0.84*0B
$GPGSV,3,1,10,06,79,098,27,19,56,046,28,02,48,213,32,12,42,314,26*7D
$GPGSV,3,2,10,24,39,264,28,17,38,063,17,28,14,126,16,03,11,041,18*73
$GPGSV,3,3,10,25,01,312,,49,,,*43
$GPRMC,001138.000,A,4011.5672,N,10505.3943,W,0.57,36.15,090517,,,A*40
$GPVTG,36.15,T,,M,0.57,N,1.06,K,A*09
$GPGGA,001139.000,4011.5673,N,10505.3941,W,1,08,1.02,1540.2,M,-20.9,M,,*66
$GPGSA,A,3,28,12,06,19,02,24,17,03,,,,,1.32,1.02,0.84*0B
$GPRMC,001139.000,A,4011.5673,N,10505.3941,W,0.14,79.07,090517,,,A*4D
$GPVTG,79.07,T,,M,0.14,N,0.27,K,A*04
$GPGGA,001140.000,4011.5673,N,10505.3941,W,1,08,1.02,1540.2,M,-20.9,M,,*68
$GPGSA,A,3,28,12,06,19,02,24,17,03,,,,,1.32,1.02,0.84*0B
$GPRMC,001140.000,A,4011.5673,N,10505.3941,W,0.51,338.57,090517,,,A*71
$GPVTG,338.57,T,,M,0.51,N,0.94,K,A*3E
$GPGGA,001141.000,4011.5674,N,10505.3941,W,1,08,1.02,1540.2,M,-20.9,M,,*6E
$GPGSA,A,3,28,12,06,19,02,24,17,03,,,,,1.32,1.02,0.84*0B
$GPRMC,001141.000,A,4011.5674,N,10505.3941,W,0.18,340.19,090517,,,A*7F
$GPVTG,340.19,T,,M,0.18,N,0.33,K,A*3B
$GPGGA,001142.000,4011.5675,N,10505.3942,W,1,08,1.02,1540.2,M,-20.9,M,,*6F
$GPGSA,A,3,28,12,06,19,02,24,17,03,,,,,1.32,1.02,0.84*0B
$GPRMC,001142.000,A,4011.5675,N,10505.3942,W,0.36,259.59,090517,,,A*7F
$GPVTG,259.59,T,,M,0.36,N,0.66,K,A*3A
$GPGGA,001143.000,4011.5674,N,10505.3943,W,1,08,1.02,1540.2,M,-20.9,M,,*6E
$GPGSA,A,3,28,12,06,19,02,24,17,03,,,,,1.32,1.02,0.84*0B
$GPGSV,3,1,10,06,79,098,26,19,56,046,29,02,48,213,32,12,42,314,27*7C
$GPGSV,3,2,10,24,39,264,27,17,38,063,17,28,14,126,15,03,11,041,18*7F
$GPGSV,3,3,10,25,01,312,,33,,,*4E
$GPRMC,001143.000,A,4011.5674,N,10505.3943,W,0.63,275.79,090517,,,A*72
$GPVTG,275.79,T,,M,0.63,N,1.16,K,A*30
$GPGGA,001144.000,4011.5675,N,10505.3944,W,1,08,1.02,1540.2,M,-20.9,M,,*6F
$GPGSA,A,3,28,12,06,19,02,24,17,03,,,,,1.32,1.02,0.84*0B
$GPRMC,001144.000,A,4011.5675,N,10505.3944,W,0.52,296.32,090517,,,A*73
$GPVTG,296.32,T,,M,0.52,N,0.97,K,A*38
$GPGGA,001145.000,4011.5674,N,10505.3943,W,1,08,1.02,1540.2,M,-20.9,M,,*68
$GPGSA,A,3,28,12,06,19,02,24,17,03,,,,,1.32,1.02,0.84*0B
$GPRMC,001145.000,A,4011.5674,N,10505.3943,W,0.16,333.47,090517,,,A*78
$GPVTG,333.47,T,,M,0.16,N,0.29,K,A*31
$GPGGA,001146.000,4011.5674,N,10505.3940,W,1,08,1.02,1540.2,M,-20.9,M,,*68
$GPGSA,A,3,28,12,06,19,02,24,17,03,,,,,1.32,1.02,0.84*0B
$GPRMC,001146.000,A,4011.5674,N,10505.3940,W,0.21,77.39,090517,,,A*46
$GPVTG,77.39,T,,M,0.21,N,0.38,K,A*0F
$GPGGA,001147.000,4011.5675,N,10505.3938,W,1,08,1.02,1540.2,M,-20.9,M,,*67
$GPGSA,A,3,28,12,06,19,02,24,17,03,,,,,1.32,1.02,0.84*0B
$GPRMC,001147.000,A,4011.5675,N,10505.3938,W,0.55,30.76,090517,,,A*42
$GPVTG,30.76,T,,M,0.55,N,1.02,K,A*0C
$GPGGA,001148.000,4011.5676,N,10505.3937,W,1,08,1.02,1540.2,M,-20.9,M,,*64
$GPGSA,A,3,28,12,06,19,02,24,17,03,,,,,1.32,1.02,0.84*0B
$GPGSV,3,1,10,06,79,098,27,19,56,046,29,02,48,213,32,12,42,314,27*7D
$GPGSV,3,2,10,24,39,264,27,17,38,063,17,28,14,126,14,03,11,041,18*7E
$GPGSV,3,3,10,25,01,312,,50,,,*4B
$GPRMC,001148.000,A,4011.5676,N,10505.3937,W,0.73,327.72,090517,,,A*74
$GPVTG,327.72,T,,M,0.73,N,1.35,K,A*3D
$GPGGA,001149.000,4011.5675,N,10505.3936,W,1,08,1.02,1540.2,M,-20.9,M,,*67
$GPGSA,A,3,28,12,06,19,02,24,17,03,,,,,1.32,1.02,0.84*0B
$GPRMC,001149.000,A,4011.5675,N,10505.3936,W,0.22,226.00,090517,,,A*76
$GPVTG,226.00,T,,M,0.22,N,0.41,K,A*3E
$GPGGA,001150.000,4011.5675,N,10505.3937,W,1,08,1.02,1540.2,M,-20.9,M,,*6E
$GPGSA,A,3,28,12,06,19,02,24,17,03,,,,,1.32,1.02,0.84*0B
$GPRMC,001150.000,A,4011.5675,N,10505.3937,W,0.55,252.19,090517,,,A*74
$GPVTG,252.19,T,,M,0.55,N,1.03,K,A*32
$GPGGA,001151.000,4011.5675,N,10505.3935,W,1,08,1.02,1540.2,M,-20.9,M,,*6D
$GPGSA,A,3,28,12,06,19,02,24,17,03,,,,,1.32,1.02,0.84*0B
$GPRMC,001151.000,A,4011.5675,N,10505.3935,W,0.26,354.73,090517,,,A*78
$GPVTG,354.73,T,,M,0.26,N,0.48,K,A*33
$GPGGA,001152.000,4011.5675,N,10505.3933,W,1,08,1.05,1540.2,M,-20.9,M,,*6F
$GPGSA,A,3,28,12,06,19,02,24,17,03,,,,,1.85,1.05,1.52*0A
$GPRMC,001152.000,A,4011.5675,N,10505.3933,W,0.24,62.49,090517,,,A*40
$GPVTG,62.49,T,,M,0.24,N,0.45,K,A*03
$GPGGA,001153.000,4011.5675,N,10505.3932,W,1,08,1.02,1540.2,M,-20.9,M,,*68
$GPGSA,A,3,28,12,06,19,02,24,17,03,,,,,1.32,1.02,0.84*0B
$GPGSV,3,1,10,06,79,096,27,19,56,046,29,02,48,213,32,12,42,314,27*73
$GPGSV,3,2,10,24,39,264,28,17,38,063,19,28,14,126,15,03,11,041,16*70
$GPGSV,3,3,10,25,01,312,,50,,,*4B
$GPRMC,001153.000,A,4011.5675,N,10505.3932,W,0.36,173.39,090517,,,A*75
$GPVTG,173.39,T,,M,0.36,N,0.67,K,A*36
$GPGGA,001154.000,4011.5674,N,10505.3932,W,1,08,1.02,1540.2,M,-20.9,M,,*6E
$GPGSA,A,3,28,12,06,19,02,24,17,03,,,,,1.32,1.02,0.84*0B
$GPRMC,001154.000,A,4011.5674,N,10505.3932,W,0.40,115.26,090517,,,A*7C
$GPVTG,115.26,T,,M,0.40,N,0.73,K,A*3C
$GPGGA,001155.000,4011.5673,N,10505.3931,W,1,08,1.02,1540.2,M,-20.9,M,,*6B
$GPGSA,A,3,28,12,06,19,02,24,17,03,,,,,1.32,1.02,0.84*0B
$GPRMC,001155.000,A,4011.5673,N,10505.3931,W,0.15,279.92,090517,,,A*7F
$GPVTG,279.92,T,,M,0.15,N,0.28,K,A*34
$GPGGA,001156.000,4011.5674,N,10505.3932,W,1,08,1.02,1540.2,M,-20.9,M,,*6C
$GPGSA,A,3,28,12,06,19,02,24,17,03,,,,,1.32,1.02,0.84*0B
$GPRMC,001156.000,A,4011.5674,N,10505.3932,W,0.54,14.12,090517,,,A*4C
$GPVTG,14.12,T,,M,0.54,N,1.00,K,A*0B
$GPGGA,001157.000,4011.5675,N,10505.3931,W,1,08,1.05,1540.2,M,-20.9,M,,*68
$GPGSA,A,3,28,12,06,19,02,24,17,03,,,,,1.85,1.05,1.52*0A
$GPRMC,001157.000,A,4011.5675,N,10505.3931,W,0.49,356.46,090517,,,A*77
$GPVTG,356.46,T,,M,0.49,N,0.91,K,A*3A
$GPGGA,001158.000,4011.5676,N,10505.3931,W,1,08,1.05,1540.2,M,-20.9,M,,*64
$GPGSA,A,3,28,12,06,19,02,24,17,03,,,,,1.85,1.05,1.52*0A
$GPGSV,3,1,10,06,79,096,27,19,56,046,29,02,48,213,32,12,42,314,27*73
$GPGSV,3,2,10,24,39,264,28,17,38,063,19,28,14,126,15,03,11,041,14*72
$GPGSV,3,3,10,25,01,312,,42,,,*48
$GPRMC,001158.000,A,4011.5676,N,10505.3931,W,0.62,343.63,090517,,,A*71
$GPVTG,343.63,T,,M,0.62,N,1.15,K,A*3D
$GPGGA,001159.000,4011.5678,N,10505.3933,W,1,08,1.02,1540.2,M,-20.9,M,,*6E
$GPGSA,A,3,28,12,06,19,02,24,17,03,,,,,1.32,1.02,0.84*0B
$GPRMC,001159.000,A,4011.5678,N,10505.3933,W,0.70,312.99,090517,,,A*7E
$GPVTG,312.99,T,,M,0.70,N,1.30,K,A*38
$GPGGA,001200.000,4011.5680,N,10505.3933,W,1,08,1.02,1540.2,M,-20.9,M,,*66
$GPGSA,A,3,28,12,06,19,02,24,17,03,,,,,1.32,1.02,0.84*0B
$GPRMC,001200.000,A,4011.5680,N,10505.3933,W,0.44,348.02,090517,,,A*7C
$GPVTG,348.02,T,,M,0.44,N,0.82,K,A*3A
$GPGGA,001201.000,4011.5680,N,10505.3934,W,1,08,1.05,1540.2,M,-20.9,M,,*67
$GPGSA,A,3,28,12,06,19,02,24,17,03,,,,,1.85,1.05,1.52*0A
$GPRMC,001201.000,A,4011.5680,N,10505.3934,W,0.21,331.29,090517,,,A*7E
$GPVTG,331.29,T,,M,0.21,N,0.39,K,A*3E
$GPGGA,001202.000,4011.5680,N,10505.3935,W,1,08,1.02,1540.3,M,-20.9,M,,*63
$GPGSA,A,3,28,12,06,19,02,24,17,03,,,,,1.32,1.02,0.84*0B
$GPRMC,001202.000,A,4011.5680,N,10505.3935,W,0.66,322.73,090517,,,A*72
$GPVTG,322.73,T,,M,0.66,N,1.22,K,A*3B
$GPGGA,001203.000,4011.5678,N,10505.3936,W,1,08,1.02,1540.3,M,-20.9,M,,*66
$GPGSA,A,3,28,12,06,19,02,24,17,03,,,,,1.32,1.02,0.84*0B
$GPGSV,3,1,10,06,79,096,27,19,56,047,30,02,48,213,32,12,42,314,27*7A
$GPGSV,3,2,10,24,39,264,28,17,38,063,21,28,14,126,15,03,11,041,15*78
$GPGSV,3,3,10,25,01,312,,37,,,*4A
$GPRMC,001203.000,A,4011.5678,N,10505.3936,W,0.24,208.62,090517,,,A*78
$GPVTG,208.62,T,,M,0.24,N,0.44,K,A*35
$GPGGA,001204.000,4011.5677,N,10505.3937,W,1,08,1.02,1540.3,M,-20.9,M,,*6F
$GPGSA,A,3,28,12,06,19,02,24,17,03,,,,,1.32,1.02,0.84*0B
$GPRMC,001204.000,A,4011.5677,N,10505.3937,W,0.39,277.41,090517,,,A*74
$GPVTG,277.41,T,,M,0.39,N,0.73,K,A*34
$GPGGA,001205.000,4011.5675,N,10505.3938,W,1,08,1.02,1540.3,M,-20.9,M,,*63
$GPGSA,A,3,28,12,06,19,02,24,17,03,,,,,1.32,1.02,0.84*0B
$GPRMC,001205.000,A,4011.5675,N,10505.3938,W,0.35,286.08,090517,,,A*77
$GPVTG,286.08,T,,M,0.35,N,0.65,K,A*3C
$GPGGA,001206.000,4011.5674,N,10505.3938,W,1,08,1.02,1540.3,M,-20.9,M,,*61
$GPGSA,A,3,28,12,06,19,02,24,17,03,,,,,1.32,1.02,0.84*0B
$GPRMC,001206.000,A,4011.5674,N,10505.3938,W,0.09,348.56,090517,,,A*72
$GPVTG,348.56,T,,M,0.09,N,0.16,K,A*3F
$GPGGA,001207.000,4011.5674,N,10505.3938,W,1,08,1.05,1540.3,M,-20.9,M,,*67
$GPGSA,A,3,28,12,06,19,02,24,17,03,,,,,1.85,1.05,1.52*0A
$GPRMC,001207.000,A,4011.5674,N,10505.3938,W,0.24,317.58,090517,,,A*78
$GPVTG,317.58,T,,M,0.24,N,0.44,K,A*33
$GPGGA,001208.000,4011.5675,N,10505.3939,W,1,08,1.02,1540.2,M,-20.9,M,,*6E
$GPGSA,A,3,28,12,06,19,02,24,17,03,,,,,1.32,1.02,0.84*0B
$GPGSV,3,1,10,06,79,096,28,19,56,047,30,02,48,213,32,12,42,314,27*75
$GPGSV,3,2,10,24,39,264,28,17,38,063,20,28,14,126,13,03,11,041,12*78
$GPGSV,3,3,10,25,01,312,,39,,,*44
$GPRMC,001208.000,A,4011.5675,N,10505.3939,W,0.38,176.94,090517,,,A*7F
$GPVTG,176.94,T,,M,0.38,N,0.71,K,A*3D
$GPGGA,001209.000,4011.5673,N,10505.3939,W,1,08,1.02,1540.2,M,-20.9,M,,*69
$GPGSA,A,3,28,12,06,19,02,24,17,03,,,,,1.32,1.02,0.84*0B
$GPRMC,001209.000,A,4011.5673,N,10505.3939,W,0.51,183.61,090517,,,A*77
$GPVTG,183.61,T,,M,0.51,N,0.95,K,A*38
$GPGGA,001210.000,4011.5672,N,10505.3939,W,1,08,1.02,1540.2,M,-20.9,M,,*60
$GPGSA,A,3,28,12,06,19,02,24,17,03,,,,,1.32,1.02,0.84*0B
$GPRMC,001210.000,A,4011.5672,N,10505.3939,W,0.05,16.24,090517,,,A*43
$GPVTG,16.24,T,,M,0.05,N,0.09,K,A*00
$GPGGA,001211.000,4011.5672,N,10505.3939,W,1,08,1.02,1540.3,M,-20.9,M,,*60
$GPGSA,A,3,28,12,06,19,02,24,17,03,,,,,1.32,1.02,0.84*0B
$GPRMC,001211.000,A,4011.5672,N,10505.3939,W,0.76,186.44,090517,,,A*78
$GPVTG,186.44,T,,M,0.76,N,1.41,K,A*37
$GPGGA,001212.000,4011.5671,N,10505.3941,W,1,08,1.02,1540.2,M,-20.9,M,,*6E
$GPGSA,A,3,28,12,06,19,02,24,17,03,,,,,1.32,1.02,0.84*0B
$GPRMC,001212.000,A,4011.5671,N,10505.3941,W,0.19,116.87,090517,,,A*78
$GPVTG,116.87,T,,M,0.19,N,0.35,K,A*3A
$GPGGA,001213.000,4011.5670,N,10505.3943,W,1,08,1.02,1540.2,M,-20.9,M,,*6C
$GPGSA,A,3,28,12,06,19,02,24,17,03,,,,,1.32,1.02,0.84*0B
$GPGSV,3,1,10,06,79,096,28,19,56,047,31,02,48,213,31,12,42,314,26*76
$GPGSV,3,2,10,24,39,264,28,17,38,063,18,28,13,127,17,03,11,041,11*72
$GPGSV,3,3,10,25,01,312,,40,,,*4A
$GPRMC,001213.000,A,4011.5670,N,10505.3943,W,0.29,342.13,090517,,,A*77
$GPVTG,342.13,T,,M,0.29,N,0.54,K,A*30
$GPGGA,001214.000,4011.5670,N,10505.3944,W,1,08,1.02,1540.2,M,-20.9,M,,*6C
$GPGSA,A,3,28,12,06,19,02,24,17,03,,,,,1.32,1.02,0.84*0B
$GPRMC,001214.000,A,4011.5670,N,10505.3944,W,0.22,331.70,090517,,,A*7D
$GPVTG,331.70,T,,M,0.22,N,0.40,K,A*3F
$GPGGA,001215.000,4011.5669,N,10505.3945,W,1,08,1.02,1540.1,M,-20.9,M,,*67
$GPGSA,A,3,28,12,06,19,02,24,17,03,,,,,1.32,1.02,0.84*0B
$GPRMC,001215.000,A,4011.5669,N,10505.3945,W,0.29,103.29,090517,,,A*71
$GPVTG,103.29,T,,M,0.29,N,0.53,K,A*39
$GPGGA,001216.000,4011.5669,N,10505.3944,W,1,08,1.02,1540.1,M,-20.9,M,,*65
$GPGSA,A,3,28,12,06,19,02,24,17,03,,,,,1.32,1.02,0.84*0B
$GPRMC,001216.000,A,4011.5669,N,10505.3944,W,0.56,187.79,090517,,,A*72
$GPVTG,187.79,T,,M,0.56,N,1.04,K,A*3B
$GPGGA,001217.000,4011.5667,N,10505.3945,W,1,07,1.15,1540.1,M,-20.9,M,,*62
$GPGSA,A,3,28,12,06,19,02,24,17,,,,,,1.46,1.15,0.90*08
$GPRMC,001217.000,A,4011.5667,N,10505.3945,W,0.23,84.73,090517,,,A*46
$GPVTG,84.73,T,,M,0.23,N,0.42,K,A*02
$GPGGA,001218.000,4011.5667,N,10505.3944,W,1,07,1.15,1540.1,M,-20.9,M,,*6C
$GPGSA,A,3,28,12,06,19,02,24,17,,,,,,1.46,1.15,0.90*08
$GPGSV,3,1,10,06,79,096,28,19,56,047,31,02,48,213,31,12,42,314,26*76
$GPGSV,3,2,10,24,39,264,28,17,38,063,19,28,13,127,16,03,11,041,*72
$GPGSV,3,3,10,25,01,312,,40,,,*4A
$GPRMC,001218.000,A,4011.5667,N,10505.3944,W,0.17,19.06,090517,,,A*49
$GPVTG,19.06,T,,M,0.17,N,0.32,K,A*04
$GPGGA,001219.000,4011.5668,N,10505.3944,W,1,07,1.15,1540.1,M,-20.9,M,,*62
$GPGSA,A,3,28,12,06,19,02,24,17,,,,,,1.46,1.15,0.90*08
$GPRMC,001219.000,A,4011.5668,N,10505.3944,W,0.34,287.77,090517,,,A*75
$GPVTG,287.77,T,,M,0.34,N,0.63,K,A*32
$GPGGA,001220.000,4011.5668,N,10505.3945,W,1,07,1.15,1540.1,M,-20.9,M,,*69
$GPGSA,A,3,28,12,06,19,02,24,17,,,,,,1.46,1.15,0.90*08
$GPRMC,001220.000,A,4011.5668,N,10505.3945,W,0.44,305.64,090517,,,A*70
$GPVTG,305.64,T,,M,0.44,N,0.82,K,A*33
$GPGGA,001221.000,4011.5669,N,10505.3946,W,1,07,1.15,1540.1,M,-20.9,M,,*6A
$GPGSA,A,3,28,12,06,19,02,24,17,,,,,,1.46,1.15,0.90*08
$GPRMC,001221.000,A,4011.5669,N,10505.3946,W,0.33,285.38,090517,,,A*73
$GPVTG,285.38,T,,M,0.33,N,0.62,K,A*3D
$GPGGA,001222.000,4011.5669,N,10505.3948,W,1,07,1.15,1540.1,M,-20.9,M,,*67
$GPGSA,A,3,28,12,06,19,02,24,17,,,,,,1.46,1.15,0.90*08
$GPRMC,001222.000,A,4011.5669,N,10505.3948,W,0.30,297.01,090517,,,A*74
$GPVTG,297.01,T,,M,0.30,N,0.56,K,A*30
$GPGGA,001223.000,4011.5669,N,10505.3948,W,1,07,1.15,1540.1,M,-20.9,M,,*66
$GPGSA,A,3,28,12,06,19,02,24,17,,,,,,1.46,1.15,0.90*08
$GPGSV,3,1,10,06,79,096,28,19,56,047,31,02,49,213,31,12,42,314,26*77
$GPGSV,3,2,10,24,39,264,28,17,38,063,20,28,13,127,17,03,11,041,*79
$GPGSV,3,3,10,25,01,312,,44,,,*4E
$GPRMC,001223.000,A,4011.5669,N,10505.3948,W,0.30,29.39,090517,,,A*49
$GPVTG,29.39,T,,M,0.30,N,0.55,K,A*0F
$GPGGA,001224.000,4011.5670,N,10505.3948,W,1,07,1.15,1540.2,M,-20.9,M,,*6A
$GPGSA,A,3,28,12,06,19,02,24,17,,,,,,1.46,1.15,0.90*08
$GPRMC,001224.000,A,4011.5670,N,10505.3948,W,0.32,204.12,090517,,,A*70
$GPVTG,204.12,T,,M,0.32,N,0.59,K,A*35
$GPGGA,001225.000,4011.5669,N,10505.3948,W,1,07,1.15,1540.1,M,-20.9,M,,*60
$GPGSA,A,3,28,12,06,19,02,24,17,,,,,,1.46,1.15,0.90*08
$GPRMC,001225.000,A,4011.5669,N,10505.3948,W,0.41,200.14,090517,,,A*7F
$GPVTG,200.14,T,,M,0.41,N,0.75,K,A*3D
$GPGGA,001226.000,4011.5668,N,10505.3949,W,1,07,1.15,1540.1,M,-20.9,M,,*63
$GPGSA,A,3,28,12,06,19,02,24,17,,,,,,1.46,1.15,0.90*08
$GPRMC,001226.000,A,4011.5668,N,10505.3949,W,0.57,179.08,090517,,,A*7B
$GPVTG,179.08,T,,M,0.57,N,1.06,K,A*3F
$GPGGA,001227.000,4011.5666,N,10505.3949,W,1,07,1.15,1540.1,M,-20.9,M,,*6C
$GPGSA,A,3,28,12,06,19,02,24,17,,,,,,1.46,1.15,0.90*08
$GPRMC,001227.000,A,4011.5666,N,10505.3949,W,0.59,107.88,090517,,,A*7B
$GPVTG,107.88,T,,M,0.59,N,1.10,K,A*37
$GPGGA,001228.000,4011.5666,N,10505.3948,W,1,07,1.15,1540.1,M,-20.9,M,,*62
$GPGSA,A,3,28,12,06,19,02,24,17,,,,,,1.46,1.15,0.90*08
$GPGSV,3,1,10,06,79,095,28,19,56,047,31,02,49,213,31,51,43,183,*7A
$GPGSV,3,2,10,12,42,314,26,24,39,264,28,17,38,063,21,28,13,127,18*76
$GPGSV,3,3,10,03,11,041,,25,01,312,*78
$GPRMC,001228.000,A,4011.5666,N,10505.3948,W,0.17,29.27,090517,,,A*47
$GPVTG,29.27,T,,M,0.17,N,0.32,K,A*04
$GPGGA,001229.000,4011.5665,N,10505.3948,W,1,07,1.15,1540.0,M,-20.9,M,,*61
$GPGSA,A,3,28,12,06,19,02,24,17,,,,,,1.46,1.15,0.90*08
$GPRMC,001229.000,A,4011.5665,N,10505.3948,W,0.34,195.09,090517,,,A*7E
$GPVTG,195.09,T,,M,0.34,N,0.62,K,A*3A
$GPGGA,001230.000,4011.5666,N,10505.3950,W,1,07,1.15,1540.0,M,-20.9,M,,*63
$GPGSA,A,3,28,12,06,19,02,24,17,,,,,,1.46,1.15,0.90*08
$GPRMC,001230.000,A,4011.5666,N,10505.3950,W,0.52,311.84,090517,,,A*77
$GPVTG,311.84,T,,M,0.52,N,0.96,K,A*3A
$GPGGA,001231.000,4011.5666,N,10505.3950,W,1,07,1.15,1539.9,M,-20.9,M,,*65
$GPGSA,A,3,28,12,06,19,02,24,17,,,,,,1.46,1.15,0.90*08
$GPRMC,001231.000,A,4011.5666,N,10505.3950,W,0.27,344.57,090517,,,A*7A
$GPVTG,344.57,T,,M,0.27,N,0.50,K,A*3C
$GPGGA,001232.000,4011.5666,N,10505.3950,W,1,07,1.15,1539.9,M,-20.9,M,,*66
$GPGSA,A,3,28,12,06,19,02,24,17,,,,,,1.46,1.15,0.90*08
$GPRMC,001232.000,A,4011.5666,N,10505.3950,W,0.31,72.33,090517,,,A*4A
$GPVTG,72.33,T,,M,0.31,N,0.58,K,A*07
$GPGGA,001233.000,4011.5667,N,10505.3949,W,1,07,1.15,1539.9,M,-20.9,M,,*6E
$GPGSA,A,3,28,12,06,19,02,24,17,,,,,,1.46,1.15,0.90*08
$GPGSV,3,1,10,06,79,095,28,19,56,047,31,02,49,213,31,51,43,183,*7A
$GPGSV,3,2,10,12,42,314,26,24,39,264,28,17,38,063,21,28,13,127,18*76
$GPGSV,3,3,10,03,11,041,,25,01,312,*78
$GPRMC,001233.000,A,4011.5667,N,10505.3949,W,0.23,136.34,090517,,,A*77
$GPVTG,136.34,T,,M,0.23,N,0.43,K,A*38
$GPGGA,001234.000,4011.5666,N,10505.3949,W,1,07,1.15,1539.9,M,-20.9,M,,*68
$GPGSA,A,3,28,12,06,19,02,24,17,,,,,,1.46,1.15,0.90*08
$GPRMC,001234.000,A,4011.5666,N,10505.3949,W,0.38,228.63,090517,,,A*75
$GPVTG,228.63,T,,M,0.38,N,0.71,K,A*3D
$GPGGA,001235.000,4011.5665,N,10505.3950,W,1,07,1.15,1539.9,M,-20.9,M,,*62
$GPGSA,A,3,28,12,06,19,02,24,17,,,,,,1.46,1.15,0.90*08
$GPRMC,001235.000,A,4011.5665,N,10505.3950,W,0.51,31.09,090517,,,A*46
$GPVTG,31.09,T,,M,0.51,N,0.95,K,A*0E
$GPGGA,001236.000,4011.5667,N,10505.3949,W,1,07,1.15,1539.9,M,-20.9,M,,*6B
$GPGSA,A,3,28,12,06,19,02,24,17,,,,,,1.46,1.15,0.90*08
$GPRMC,001236.000,A,4011.5667,N,10505.3949,W,0.12,234.55,090517,,,A*76
$GPVTG,234.55,T,,M,0.12,N,0.22,K,A*3B
$GPGGA,001237.000,4011.5666,N,10505.3949,W,1,07,1.15,1539.9,M,-20.9,M,,*6B
$GPGSA,A,3,28,12,06,19,02,24,17,,,,,,1.46,1.15,0.90*08
$GPRMC,001237.000,A,4011.5666,N,10505.3949,W,0.31,159.76,090517,,,A*7E
$GPVTG,159.76,T,,M,0.31,N,0.57,K,A*31
$GPGGA,001238.000,4011.5666,N,10505.3949,W,1,07,1.15,1539.9,M,-20.9,M,,*64
$GPGSA,A,3,28,12,06,19,02,24,17,,,,,,1.46,1.15,0.90*08
$GPGSV,3,1,10,06,79,095,28,19,56,047,31,02,49,213,30,12,42,314,27*74
$GPGSV,3,2,10,24,39,264,28,17,37,064,20,48,35,219,,28,13,127,18*78
$GPGSV,3,3,10,03,11,041,,25,01,312,*78
$GPRMC,001238.000,A,4011.5666,N,10505.3949,W,0.08,195.26,090517,,,A*7E
$GPVTG,195.26,T,,M,0.08,N,0.15,K,A*38
$GPGGA,001239.000,4011.5665,N,10505.3949,W,1,07,1.15,1539.9,M,-20.9,M,,*66
$GPGSA,A,3,28,12,06,19,02,24,17,,,,,,1.46,1.15,0.90*08
$GPRMC,001239.000,A,4011.5665,N,10505.3949,W,0.17,72.46,090517,,,A*4C
$GPVTG,72.46,T,,M,0.17,N,0.32,K,A*0D
$GPGGA,001240.000,4011.5665,N,10505.3948,W,1,07,1.15,1539.9,M,-20.9,M,,*69
$GPGSA,A,3,28,12,06,19,02,24,17,,,,,,1.46,1.15,0.90*08
$GPRMC,001240.000,A,4011.5665,N,10505.3948,W,0.44,98.69,090517,,,A*4C
$GPVTG,98.69,T,,M,0.44,N,0.81,K,A*0A
$GPGGA,001241.000,4011.5665,N,10505.3947,W,1,07,1.15,1539.9,M,-20.9,M,,*67
$GPGSA,A,3,28,12,06,19,02,24,17,,,,,,1.46,1.15,0.90*08
$GPRMC,001241.000,A,4011.5665,N,10505.3947,W,0.13,94.12,090517,,,A*40
$GPVTG,94.12,T,,M,0.13,N,0.24,K,A*07
$GPGGA,001242.000,4011.5665,N,10505.3946,W,1,07,1.15,1539.9,M,-20.9,M,,*65
$GPGSA,A,3,28,12,06,19,02,24,17,,,,,,1.46,1.15,0.90*08
$GPRMC,001242.000,A,4011.5665,N,10505.3946,W,0.13,196.59,090517,,,A*7E
$GPVTG,196.59,T,,M,0.13,N,0.23,K,A*3C
$GPGGA,001243.000,4011.5665,N,10505.3946,W,1,07,1.15,1539.9,M,-20.9,M,,*64
$GPGSA,A,3,28,12,06,19,02,24,17,,,,,,1.46,1.15,0.90*08
$GPGSV,3,1,10,06,79,095,27,19,56,047,30,02,49,213,30,12,42,314,27*7A
$GPGSV,3,2,10,24,39,264,28,17,37,064,21,48,35,219,,28,13,127,18*79
$GPGSV,3,3,10,03,11,041,,25,01,312,*78
$GPRMC,001243.000,A,4011.5665,N,10505.3946,W,0.18,290.98,090517,,,A*7C
$GPVTG,290.98,T,,M,0.18,N,0.33,K,A*3E
$GPGGA,001244.000,4011.5665,N,10505.3947,W,1,07,1.15,1539.9,M,-20.9,M,,*62
$GPGSA,A,3,28,12,06,19,02,24,17,,,,,,1.46,1.15,0.90*08
$GPRMC,001244.000,A,4011.5665,N,10505.3947,W,0.46,185.73,090517,,,A*73
$GPVTG,185.73,T,,M,0.46,N,0.86,K,A*39
$GPGGA,001245.000,4011.5664,N,10505.3947,W,1,07,1.15,1539.9,M,-20.9,M,,*62
$GPGSA,A,3,28,12,06,19,02,24,17,,,,,,1.46,1.15,0.90*08
$GPRMC,001245.000,A,4011.5664,N,10505.3947,W,0.24,130.60,090517,,,A*7B
$GPVTG,130.60,T,,M,0.24,N,0.45,K,A*3E
$GPGGA,001246.000,4011.5663,N,10505.3946,W,1,07,1.15,1539.9,M,-20.9,M,,*67
$GPGSA,A,3,28,12,06,19,02,24,17,,,,,,1.46,1.15,0.90*08
$GPRMC,001246.000,A,4011.5663,N,10505.3946,W,0.29,308.51,090517,,,A*78
$GPVTG,308.51,T,,M,0.29,N,0.53,K,A*3F
$GPGGA,001247.000,4011.5664,N,10505.3947,W,1,07,1.15,1540.0,M,-20.9,M,,*67
$GPGSA,A,3,28,12,06,19,02,24,17,,,,,,1.46,1.15,0.90*08
$GPRMC,001247.000,A,4011.5664,N,10505.3947,W,0.28,303.60,090517,,,A*77
$GPVTG,303.60,T,,M,0.28,N,0.52,K,A*36
$GPGGA,001248.000,4011.5664,N,10505.3948,W,1,07,1.15,1540.0,M,-20.9,M,,*67
$GPGSA,A,3,28,12,06,19,02,24,17,,,,,,1.46,1.15,0.90*08
$GPGSV,3,1,10,06,79,095,27,19,56,047,29,02,49,213,30,51,43,183,*7D
$GPGSV,3,2,10,12,42,314,27,24,39,264,29,17,37,064,21,28,13,127,18*7E
$GPGSV,3,3,10,03,11,041,,25,01,312,*78
$GPRMC,001248.000,A,4011.5664,N,10505.3948,W,0.32,72.86,090517,,,A*41
$GPVTG,72.86,T,,M,0.32,N,0.60,K,A*01
$GPGGA,001249.000,4011.5664,N,10505.3947,W,1,07,1.15,1540.0,M,-20.9,M,,*69
$GPGSA,A,3,28,12,06,19,02,24,17,,,,,,1.46,1.15,0.90*08
$GPRMC,001249.000,A,4011.5664,N,10505.3947,W,0.06,110.65,090517,,,A*70
$GPVTG,110.65,T,,M,0.06,N,0.11,K,A*38
$GPGGA,001250.000,4011.5664,N,10505.3947,W,1,07,1.15,1540.0,M,-20.9,M,,*61
$GPGSA,A,3,28,12,06,19,02,24,17,,,,,,1.46,1.15,0.90*08
$GPRMC,001250.000,A,4011.5664,N,10505.3947,W,0.31,179.19,090517,,,A*78
$GPVTG,179.19,T,,M,0.31,N,0.58,K,A*35
$GPGGA,001251.000,4011.5663,N,10505.3947,W,1,07,1.15,1540.0,M,-20.9,M,,*67
$GPGSA,A,3,28,12,06,19,02,24,17,,,,,,1.46,1.15,0.90*08
$GPRMC,001251.000,A,4011.5663,N,10505.3947,W,0.13,187.51,090517,,,A*73
$GPVTG,187.51,T,,M,0.13,N,0.23,K,A*34
$GPGGA,001252.000,4011.5663,N,10505.3947,W,1,07,1.15,1540.0,M,-20.9,M,,*64
$GPGSA,A,3,28,12,06,19,02,24,17,,,,,,1.46,1.15,0.90*08
$GPRMC,001252.000,A,4011.5663,N,10505.3947,W,0.61,130.64,090517,,,A*7F
$GPVTG,130.64,T,,M,0.61,N,1.13,K,A*39
$GPGGA,001253.000,4011.5662,N,10505.3944,W,1,07,1.15,1540.0,M,-20.9,M,,*67
$GPGSA,A,3,28,12,06,19,02,24,17,,,,,,1.46,1.15,0.90*08
